[
  {
    "lat": 21.2375487,
    "lng": 81.6387502,
    "type": "pickpocketing",
    "severity": 2,
    "label": "jewellers anupchand bhansali",
    "source": "osm_overpass",
    "osm_id": 3773122170,
    "months_ago": 2.47,
    "timestamp": "2025-09-10",
    "recency_bucket": "0_3m",
    "is_recent_3m": true
  },
  {
    "lat": 21.2375223,
    "lng": 81.6308207,
    "type": "pickpocketing",
    "severity": 2,
    "label": "big bazzar",
    "source": "osm_overpass",
    "osm_id": 4443274696,
    "months_ago": 6.61,
    "timestamp": "2025-05-09",
    "recency_bucket": "3_9m",
    "is_recent_3m": false
  },
  {
    "lat": 21.2413091,
    "lng": 81.6842484,
    "type": "harassment",
    "severity": 3,
    "label": "10 Downing Street",
    "source": "osm_overpass",
    "osm_id": 4443683686,
    "months_ago": 2.63,
    "timestamp": "2025-09-05",
    "recency_bucket": "0_3m",
    "is_recent_3m": true
  },
  {
    "lat": 21.2599271,
    "lng": 81.5958741,
    "type": "harassment",
    "severity": 3,
    "label": "Club Paraiso",
    "source": "osm_overpass",
    "osm_id": 4443695283,
    "months_ago": 1.19,
    "timestamp": "2025-10-18",
    "recency_bucket": "0_3m",
    "is_recent_3m": true
  },
  {
    "lat": 21.2320516,
    "lng": 81.6809188,
    "type": "harassment",
    "severity": 3,
    "label": "Boozars Lounge",
    "source": "osm_overpass",
    "osm_id": 4443710311,
    "months_ago": 2.71,
    "timestamp": "2025-09-03",
    "recency_bucket": "0_3m",
    "is_recent_3m": true
  },
  {
    "lat": 21.2399174,
    "lng": 81.6789196,
    "type": "harassment",
    "severity": 3,
    "label": "Z Bar",
    "source": "osm_overpass",
    "osm_id": 4443739017,
    "months_ago": 8.01,
    "timestamp": "2025-03-28",
    "recency_bucket": "3_9m",
    "is_recent_3m": false
  },
  {
    "lat": 21.2427,
    "lng": 81.6436235,
    "type": "harassment",
    "severity": 3,
    "label": "j juice bar",
    "source": "osm_overpass",
    "osm_id": 4444240135,
    "months_ago": 3.46,
    "timestamp": "2025-08-11",
    "recency_bucket": "3_9m",
    "is_recent_3m": false
  },
  {
    "lat": 21.2339329,
    "lng": 81.6801172,
    "type": "harassment",
    "severity": 3,
    "label": "XtremeSports Bar",
    "source": "osm_overpass",
    "osm_id": 4444297938,
    "months_ago": 1.37,
    "timestamp": "2025-10-13",
    "recency_bucket": "0_3m",
    "is_recent_3m": true
  },
  {
    "lat": 21.2403147,
    "lng": 81.625387,
    "type": "harassment",
    "severity": 3,
    "label": "Metro 7X11",
    "source": "osm_overpass",
    "osm_id": 4444311160,
    "months_ago": 7.7,
    "timestamp": "2025-04-06",
    "recency_bucket": "3_9m",
    "is_recent_3m": false
  },
  {
    "lat": 21.2517794,
    "lng": 81.6480269,
    "type": "harassment",
    "severity": 3,
    "label": "Orchid",
    "source": "osm_overpass",
    "osm_id": 4444322309,
    "months_ago": 1.16,
    "timestamp": "2025-10-19",
    "recency_bucket": "0_3m",
    "is_recent_3m": true
  },
  {
    "lat": 21.2390581,
    "lng": 81.6371218,
    "type": "pickpocketing",
    "severity": 2,
    "label": "style shop",
    "source": "osm_overpass",
    "osm_id": 4444331931,
    "months_ago": 1.19,
    "timestamp": "2025-10-18",
    "recency_bucket": "0_3m",
    "is_recent_3m": true
  },
  {
    "lat": 21.2493191,
    "lng": 81.6460313,
    "type": "pickpocketing",
    "severity": 2,
    "label": "Siddhivinayaka Craft Glass",
    "source": "osm_overpass",
    "osm_id": 4444460474,
    "months_ago": 5.18,
    "timestamp": "2025-06-21",
    "recency_bucket": "3_9m",
    "is_recent_3m": false
  },
  {
    "lat": 21.2493841,
    "lng": 81.6459116,
    "type": "pickpocketing",
    "severity": 2,
    "label": "Tanishq Interiors Associates Private Ltd",
    "source": "osm_overpass",
    "osm_id": 4444469401,
    "months_ago": 10.59,
    "timestamp": "2025-01-09",
    "recency_bucket": "9m_plus",
    "is_recent_3m": false
  },
  {
    "lat": 21.2468638,
    "lng": 81.5974324,
    "type": "harassment",
    "severity": 2,
    "label": "पंडित रवि शंकर शुकला विश्वविघालय",
    "source": "osm_overpass",
    "osm_id": 4445064650,
    "months_ago": 2.0,
    "timestamp": "2025-09-24",
    "recency_bucket": "0_3m",
    "is_recent_3m": true
  },
  {
    "lat": 21.2460926,
    "lng": 81.6049336,
    "type": "harassment",
    "severity": 2,
    "label": "Ayush and health sciences university",
    "source": "osm_overpass",
    "osm_id": 4445076254,
    "months_ago": 5.32,
    "timestamp": "2025-06-16",
    "recency_bucket": "3_9m",
    "is_recent_3m": false
  },
  {
    "lat": 21.1721095,
    "lng": 81.6244115,
    "type": "harassment",
    "severity": 2,
    "label": "Kushabhau Thakre Patrakarita",
    "source": "osm_overpass",
    "osm_id": 4445093791,
    "months_ago": 1.04,
    "timestamp": "2025-10-23",
    "recency_bucket": "0_3m",
    "is_recent_3m": true
  },
  {
    "lat": 21.2366923,
    "lng": 81.6855702,
    "type": "pickpocketing",
    "severity": 2,
    "label": "Oxford book store and stationary",
    "source": "osm_overpass",
    "osm_id": 4445094394,
    "months_ago": 0.62,
    "timestamp": "2025-11-04",
    "recency_bucket": "0_3m",
    "is_recent_3m": true
  },
  {
    "lat": 21.2366698,
    "lng": 81.6856279,
    "type": "pickpocketing",
    "severity": 2,
    "label": "Promart",
    "source": "osm_overpass",
    "osm_id": 4445097437,
    "months_ago": 8.08,
    "timestamp": "2025-03-25",
    "recency_bucket": "3_9m",
    "is_recent_3m": false
  },
  {
    "lat": 21.2367133,
    "lng": 81.6860306,
    "type": "pickpocketing",
    "severity": 2,
    "label": "B blunt",
    "source": "osm_overpass",
    "osm_id": 4445102292,
    "months_ago": 3.43,
    "timestamp": "2025-08-12",
    "recency_bucket": "3_9m",
    "is_recent_3m": false
  },
  {
    "lat": 21.2363293,
    "lng": 81.6861167,
    "type": "pickpocketing",
    "severity": 2,
    "label": "catmoss",
    "source": "osm_overpass",
    "osm_id": 4445106770,
    "months_ago": 1.19,
    "timestamp": "2025-10-18",
    "recency_bucket": "0_3m",
    "is_recent_3m": true
  },
  {
    "lat": 21.2362934,
    "lng": 81.6855205,
    "type": "pickpocketing",
    "severity": 2,
    "label": "Kalasalgam",
    "source": "osm_overpass",
    "osm_id": 4445111115,
    "months_ago": 2.02,
    "timestamp": "2025-09-23",
    "recency_bucket": "0_3m",
    "is_recent_3m": true
  },
  {
    "lat": 21.2363078,
    "lng": 81.6858178,
    "type": "pickpocketing",
    "severity": 2,
    "label": "SIMBA Toys",
    "source": "osm_overpass",
    "osm_id": 4445114844,
    "months_ago": 1.73,
    "timestamp": "2025-10-02",
    "recency_bucket": "0_3m",
    "is_recent_3m": true
  },
  {
    "lat": 21.236275,
    "lng": 81.6856408,
    "type": "pickpocketing",
    "severity": 2,
    "label": "Bunkaari India",
    "source": "osm_overpass",
    "osm_id": 4445117888,
    "months_ago": 8.39,
    "timestamp": "2025-03-16",
    "recency_bucket": "3_9m",
    "is_recent_3m": false
  },
  {
    "lat": 21.2363218,
    "lng": 81.6859517,
    "type": "pickpocketing",
    "severity": 2,
    "label": "horizon lifestyle",
    "source": "osm_overpass",
    "osm_id": 4445145795,
    "months_ago": 12.39,
    "timestamp": "2024-11-16",
    "recency_bucket": "9m_plus",
    "is_recent_3m": false
  },
  {
    "lat": 21.2362608,
    "lng": 81.6860791,
    "type": "pickpocketing",
    "severity": 2,
    "label": "Steelar Furniture",
    "source": "osm_overpass",
    "osm_id": 4445155652,
    "months_ago": 6.74,
    "timestamp": "2025-05-05",
    "recency_bucket": "3_9m",
    "is_recent_3m": false
  },
  {
    "lat": 21.2362625,
    "lng": 81.6858226,
    "type": "pickpocketing",
    "severity": 2,
    "label": "himalaya opticals",
    "source": "osm_overpass",
    "osm_id": 4445159451,
    "months_ago": 5.65,
    "timestamp": "2025-06-07",
    "recency_bucket": "3_9m",
    "is_recent_3m": false
  },
  {
    "lat": 21.2362675,
    "lng": 81.6857815,
    "type": "pickpocketing",
    "severity": 2,
    "label": "THAI SPA",
    "source": "osm_overpass",
    "osm_id": 4445162714,
    "months_ago": 7.83,
    "timestamp": "2025-04-02",
    "recency_bucket": "3_9m",
    "is_recent_3m": false
  },
  {
    "lat": 21.2362675,
    "lng": 81.6855537,
    "type": "pickpocketing",
    "severity": 2,
    "label": "saraswathi handlooms",
    "source": "osm_overpass",
    "osm_id": 4445168094,
    "months_ago": 4.24,
    "timestamp": "2025-07-19",
    "recency_bucket": "3_9m",
    "is_recent_3m": false
  },
  {
    "lat": 21.240521,
    "lng": 81.6840636,
    "type": "pickpocketing",
    "severity": 2,
    "label": "Valentine",
    "source": "osm_overpass",
    "osm_id": 4445168480,
    "months_ago": 7.95,
    "timestamp": "2025-03-29",
    "recency_bucket": "3_9m",
    "is_recent_3m": false
  },
  {
    "lat": 21.2365888,
    "lng": 81.6856449,
    "type": "pickpocketing",
    "severity": 2,
    "label": "amobea gaming zone",
    "source": "osm_overpass",
    "osm_id": 4445173669,
    "months_ago": 8.25,
    "timestamp": "2025-03-20",
    "recency_bucket": "3_9m",
    "is_recent_3m": false
  },
  {
    "lat": 21.2363798,
    "lng": 81.6860171,
    "type": "pickpocketing",
    "severity": 2,
    "label": "beverages",
    "source": "osm_overpass",
    "osm_id": 4445201630,
    "months_ago": 1.43,
    "timestamp": "2025-10-11",
    "recency_bucket": "0_3m",
    "is_recent_3m": true
  },
  {
    "lat": 21.2365655,
    "lng": 81.6857139,
    "type": "pickpocketing",
    "severity": 2,
    "label": "Being Human",
    "source": "osm_overpass",
    "osm_id": 4445343757,
    "months_ago": 9.53,
    "timestamp": "2025-02-10",
    "recency_bucket": "9m_plus",
    "is_recent_3m": false
  },
  {
    "lat": 21.2569537,
    "lng": 81.6823234,
    "type": "pickpocketing",
    "severity": 2,
    "label": "Green Glory",
    "source": "osm_overpass",
    "osm_id": 4445349715,
    "months_ago": 3.98,
    "timestamp": "2025-07-26",
    "recency_bucket": "3_9m",
    "is_recent_3m": false
  },
  {
    "lat": 21.2365723,
    "lng": 81.6857536,
    "type": "pickpocketing",
    "severity": 2,
    "label": "Biba",
    "source": "osm_overpass",
    "osm_id": 4445367308,
    "months_ago": 6.22,
    "timestamp": "2025-05-20",
    "recency_bucket": "3_9m",
    "is_recent_3m": false
  },
  {
    "lat": 21.2365704,
    "lng": 81.685776,
    "type": "pickpocketing",
    "severity": 2,
    "label": "WoodLand",
    "source": "osm_overpass",
    "osm_id": 4445400230,
    "months_ago": 8.66,
    "timestamp": "2025-03-08",
    "recency_bucket": "3_9m",
    "is_recent_3m": false
  },
  {
    "lat": 21.2169236,
    "lng": 81.6565649,
    "type": "pickpocketing",
    "severity": 2,
    "label": "Colors fresh",
    "source": "osm_overpass",
    "osm_id": 4445423275,
    "months_ago": 8.62,
    "timestamp": "2025-03-09",
    "recency_bucket": "3_9m",
    "is_recent_3m": false
  },
  {
    "lat": 21.2365997,
    "lng": 81.6859812,
    "type": "pickpocketing",
    "severity": 2,
    "label": "DLF brands",
    "source": "osm_overpass",
    "osm_id": 4445425881,
    "months_ago": 4.05,
    "timestamp": "2025-07-24",
    "recency_bucket": "3_9m",
    "is_recent_3m": false
  },
  {
    "lat": 21.2169025,
    "lng": 81.6565163,
    "type": "pickpocketing",
    "severity": 2,
    "label": "Mufti",
    "source": "osm_overpass",
    "osm_id": 4445433311,
    "months_ago": 7.81,
    "timestamp": "2025-04-03",
    "recency_bucket": "3_9m",
    "is_recent_3m": false
  },
  {
    "lat": 21.2168925,
    "lng": 81.6565807,
    "type": "pickpocketing",
    "severity": 2,
    "label": "Bata",
    "source": "osm_overpass",
    "osm_id": 4445448048,
    "months_ago": 7.16,
    "timestamp": "2025-04-22",
    "recency_bucket": "3_9m",
    "is_recent_3m": false
  },
  {
    "lat": 21.2395697,
    "lng": 81.6670376,
    "type": "pickpocketing",
    "severity": 2,
    "label": "venkatesh suzuki",
    "source": "osm_overpass",
    "osm_id": 4445451110,
    "months_ago": 1.15,
    "timestamp": "2025-10-19",
    "recency_bucket": "0_3m",
    "is_recent_3m": true
  },
  {
    "lat": 21.2168675,
    "lng": 81.6565699,
    "type": "pickpocketing",
    "severity": 2,
    "label": "Planet Fashion",
    "source": "osm_overpass",
    "osm_id": 4445451341,
    "months_ago": 2.71,
    "timestamp": "2025-09-03",
    "recency_bucket": "0_3m",
    "is_recent_3m": true
  },
  {
    "lat": 21.2407602,
    "lng": 81.6613216,
    "type": "pickpocketing",
    "severity": 2,
    "label": "g k honda",
    "source": "osm_overpass",
    "osm_id": 4445455977,
    "months_ago": 5.61,
    "timestamp": "2025-06-08",
    "recency_bucket": "3_9m",
    "is_recent_3m": false
  },
  {
    "lat": 21.2171225,
    "lng": 81.656586,
    "type": "pickpocketing",
    "severity": 2,
    "label": "Crossword",
    "source": "osm_overpass",
    "osm_id": 4445459790,
    "months_ago": 9.02,
    "timestamp": "2025-02-25",
    "recency_bucket": "9m_plus",
    "is_recent_3m": false
  },
  {
    "lat": 21.240979,
    "lng": 81.6361341,
    "type": "pickpocketing",
    "severity": 2,
    "label": "A-1 bakery",
    "source": "osm_overpass",
    "osm_id": 4445485239,
    "months_ago": 6.25,
    "timestamp": "2025-05-19",
    "recency_bucket": "3_9m",
    "is_recent_3m": false
  },
  {
    "lat": 21.2465622,
    "lng": 81.6186988,
    "type": "pickpocketing",
    "severity": 2,
    "label": "meenakshi beauty and academy",
    "source": "osm_overpass",
    "osm_id": 4445488230,
    "months_ago": 0.29,
    "timestamp": "2025-11-14",
    "recency_bucket": "0_3m",
    "is_recent_3m": true
  },
  {
    "lat": 21.2439902,
    "lng": 81.6110089,
    "type": "pickpocketing",
    "severity": 2,
    "label": "Icy-Spicy",
    "source": "osm_overpass",
    "osm_id": 4445490547,
    "months_ago": 9.32,
    "timestamp": "2025-02-16",
    "recency_bucket": "9m_plus",
    "is_recent_3m": false
  },
  {
    "lat": 21.2465167,
    "lng": 81.6180881,
    "type": "pickpocketing",
    "severity": 2,
    "label": "IOSIS wellness-spa skin salon slimming",
    "source": "osm_overpass",
    "osm_id": 4445495357,
    "months_ago": 5.54,
    "timestamp": "2025-06-10",
    "recency_bucket": "3_9m",
    "is_recent_3m": false
  },
  {
    "lat": 21.2590085,
    "lng": 81.6368154,
    "type": "pickpocketing",
    "severity": 2,
    "label": "CNC bakery",
    "source": "osm_overpass",
    "osm_id": 4445503417,
    "months_ago": 8.74,
    "timestamp": "2025-03-06",
    "recency_bucket": "3_9m",
    "is_recent_3m": false
  },
  {
    "lat": 21.2171727,
    "lng": 81.6565422,
    "type": "pickpocketing",
    "severity": 2,
    "label": "Jhon Player",
    "source": "osm_overpass",
    "osm_id": 4445517405,
    "months_ago": 8.55,
    "timestamp": "2025-03-11",
    "recency_bucket": "3_9m",
    "is_recent_3m": false
  },
  {
    "lat": 21.256506,
    "lng": 81.6662158,
    "type": "pickpocketing",
    "severity": 2,
    "label": "pahlajani test tube baby center",
    "source": "osm_overpass",
    "osm_id": 4445539847,
    "months_ago": 5.21,
    "timestamp": "2025-06-20",
    "recency_bucket": "3_9m",
    "is_recent_3m": false
  },
  {
    "lat": 21.2171488,
    "lng": 81.6565512,
    "type": "pickpocketing",
    "severity": 2,
    "label": "Wills Lifestyle",
    "source": "osm_overpass",
    "osm_id": 4445551649,
    "months_ago": 0.12,
    "timestamp": "2025-11-19",
    "recency_bucket": "0_3m",
    "is_recent_3m": true
  },
  {
    "lat": 21.2171838,
    "lng": 81.6567765,
    "type": "pickpocketing",
    "severity": 2,
    "label": "Brand Factory",
    "source": "osm_overpass",
    "osm_id": 4445559388,
    "months_ago": 1.38,
    "timestamp": "2025-10-13",
    "recency_bucket": "0_3m",
    "is_recent_3m": true
  },
  {
    "lat": 21.2127572,
    "lng": 81.6636472,
    "type": "pickpocketing",
    "severity": 2,
    "label": "lalpur wholesale fruit market",
    "source": "osm_overpass",
    "osm_id": 4445581936,
    "months_ago": 2.71,
    "timestamp": "2025-09-03",
    "recency_bucket": "0_3m",
    "is_recent_3m": true
  },
  {
    "lat": 21.2365239,
    "lng": 81.6857718,
    "type": "pickpocketing",
    "severity": 2,
    "label": "Peter England",
    "source": "osm_overpass",
    "osm_id": 4445588528,
    "months_ago": 7.11,
    "timestamp": "2025-04-24",
    "recency_bucket": "3_9m",
    "is_recent_3m": false
  },
  {
    "lat": 21.2366163,
    "lng": 81.7041441,
    "type": "harassment",
    "severity": 2,
    "label": "indira gandhi agricultural university",
    "source": "osm_overpass",
    "osm_id": 4445641692,
    "months_ago": 4.77,
    "timestamp": "2025-07-03",
    "recency_bucket": "3_9m",
    "is_recent_3m": false
  },
  {
    "lat": 21.2479688,
    "lng": 81.6394641,
    "type": "harassment",
    "severity": 2,
    "label": "government dentalcollege",
    "source": "osm_overpass",
    "osm_id": 4445650311,
    "months_ago": 11.43,
    "timestamp": "2024-12-15",
    "recency_bucket": "9m_plus",
    "is_recent_3m": false
  },
  {
    "lat": 21.1630598,
    "lng": 81.6589768,
    "type": "harassment",
    "severity": 2,
    "label": "Government Engineering College",
    "source": "osm_overpass",
    "osm_id": 4445663649,
    "months_ago": 1.32,
    "timestamp": "2025-10-14",
    "recency_bucket": "0_3m",
    "is_recent_3m": true
  },
  {
    "lat": 21.2358387,
    "lng": 81.6469485,
    "type": "harassment",
    "severity": 2,
    "label": "Government .J. yaganandam chittisgarh college",
    "source": "osm_overpass",
    "osm_id": 4445691567,
    "months_ago": 2.29,
    "timestamp": "2025-09-15",
    "recency_bucket": "0_3m",
    "is_recent_3m": true
  },
  {
    "lat": 21.2477275,
    "lng": 81.6022271,
    "type": "harassment",
    "severity": 2,
    "label": "Government nagarjuna post graduate college of science",
    "source": "osm_overpass",
    "osm_id": 4445705583,
    "months_ago": 1.46,
    "timestamp": "2025-10-10",
    "recency_bucket": "0_3m",
    "is_recent_3m": true
  },
  {
    "lat": 21.2568806,
    "lng": 81.6528506,
    "type": "pickpocketing",
    "severity": 2,
    "label": "newdeals",
    "source": "osm_overpass",
    "osm_id": 4445902120,
    "months_ago": 2.38,
    "timestamp": "2025-09-13",
    "recency_bucket": "0_3m",
    "is_recent_3m": true
  },
  {
    "lat": 21.2578919,
    "lng": 81.642573,
    "type": "pickpocketing",
    "severity": 2,
    "label": "aqua finehome décor",
    "source": "osm_overpass",
    "osm_id": 4445912691,
    "months_ago": 8.48,
    "timestamp": "2025-03-14",
    "recency_bucket": "3_9m",
    "is_recent_3m": false
  },
  {
    "lat": 21.2578588,
    "lng": 81.6693473,
    "type": "pickpocketing",
    "severity": 2,
    "label": "Nillinz Fashion Studio",
    "source": "osm_overpass",
    "osm_id": 4446043508,
    "months_ago": 12.99,
    "timestamp": "2024-10-29",
    "recency_bucket": "9m_plus",
    "is_recent_3m": false
  },
  {
    "lat": 21.2371187,
    "lng": 81.6935522,
    "type": "dark_area",
    "severity": 2,
    "label": "Sunita Park",
    "source": "osm_overpass",
    "osm_id": 4446056760,
    "months_ago": 0.54,
    "timestamp": "2025-11-07",
    "recency_bucket": "0_3m",
    "is_recent_3m": true
  },
  {
    "lat": 21.2494403,
    "lng": 81.6456675,
    "type": "pickpocketing",
    "severity": 2,
    "label": "Fairdeal Sony center",
    "source": "osm_overpass",
    "osm_id": 4446068908,
    "months_ago": 8.66,
    "timestamp": "2025-03-08",
    "recency_bucket": "3_9m",
    "is_recent_3m": false
  },
  {
    "lat": 21.2123475,
    "lng": 81.6625086,
    "type": "pickpocketing",
    "severity": 2,
    "label": "A city honda",
    "source": "osm_overpass",
    "osm_id": 4446077589,
    "months_ago": 11.05,
    "timestamp": "2024-12-26",
    "recency_bucket": "9m_plus",
    "is_recent_3m": false
  },
  {
    "lat": 21.2493758,
    "lng": 81.6460243,
    "type": "pickpocketing",
    "severity": 2,
    "label": "Rx infotech Pvt Ltd",
    "source": "osm_overpass",
    "osm_id": 4446107017,
    "months_ago": 14.92,
    "timestamp": "2024-09-01",
    "recency_bucket": "9m_plus",
    "is_recent_3m": false
  },
  {
    "lat": 21.249403,
    "lng": 81.6460181,
    "type": "pickpocketing",
    "severity": 2,
    "label": "Woman",
    "source": "osm_overpass",
    "osm_id": 4446150450,
    "months_ago": 5.12,
    "timestamp": "2025-06-22",
    "recency_bucket": "3_9m",
    "is_recent_3m": false
  },
  {
    "lat": 21.2751003,
    "lng": 81.6878178,
    "type": "pickpocketing",
    "severity": 2,
    "label": "manyavar",
    "source": "osm_overpass",
    "osm_id": 4446161497,
    "months_ago": 2.98,
    "timestamp": "2025-08-25",
    "recency_bucket": "0_3m",
    "is_recent_3m": true
  },
  {
    "lat": 21.2495216,
    "lng": 81.6458724,
    "type": "pickpocketing",
    "severity": 2,
    "label": "Red Tape",
    "source": "osm_overpass",
    "osm_id": 4446168185,
    "months_ago": 11.87,
    "timestamp": "2024-12-02",
    "recency_bucket": "9m_plus",
    "is_recent_3m": false
  },
  {
    "lat": 21.2749512,
    "lng": 81.6876778,
    "type": "pickpocketing",
    "severity": 2,
    "label": "Jack & Jones",
    "source": "osm_overpass",
    "osm_id": 4446171801,
    "months_ago": 1.75,
    "timestamp": "2025-10-02",
    "recency_bucket": "0_3m",
    "is_recent_3m": true
  },
  {
    "lat": 21.2496366,
    "lng": 81.6460891,
    "type": "harassment",
    "severity": 2,
    "label": "ITM University",
    "source": "osm_overpass",
    "osm_id": 4446177077,
    "months_ago": 2.86,
    "timestamp": "2025-08-29",
    "recency_bucket": "0_3m",
    "is_recent_3m": true
  },
  {
    "lat": 21.2762265,
    "lng": 81.6873777,
    "type": "pickpocketing",
    "severity": 2,
    "label": "syndicate jewllers",
    "source": "osm_overpass",
    "osm_id": 4446179661,
    "months_ago": 6.03,
    "timestamp": "2025-05-26",
    "recency_bucket": "3_9m",
    "is_recent_3m": false
  },
  {
    "lat": 21.2756634,
    "lng": 81.6878659,
    "type": "pickpocketing",
    "severity": 2,
    "label": "louies phillips",
    "source": "osm_overpass",
    "osm_id": 4446183965,
    "months_ago": 7.36,
    "timestamp": "2025-04-16",
    "recency_bucket": "3_9m",
    "is_recent_3m": false
  },
  {
    "lat": 21.2760549,
    "lng": 81.6876578,
    "type": "pickpocketing",
    "severity": 2,
    "label": "lee",
    "source": "osm_overpass",
    "osm_id": 4446190228,
    "months_ago": 9.12,
    "timestamp": "2025-02-22",
    "recency_bucket": "9m_plus",
    "is_recent_3m": false
  },
  {
    "lat": 21.2496384,
    "lng": 81.6460499,
    "type": "pickpocketing",
    "severity": 2,
    "label": "Shubkamna",
    "source": "osm_overpass",
    "osm_id": 4446190771,
    "months_ago": 6.84,
    "timestamp": "2025-05-02",
    "recency_bucket": "3_9m",
    "is_recent_3m": false
  },
  {
    "lat": 21.2495234,
    "lng": 81.6461934,
    "type": "pickpocketing",
    "severity": 2,
    "label": "Label Ritu Kumar",
    "source": "osm_overpass",
    "osm_id": 4446193825,
    "months_ago": 3.89,
    "timestamp": "2025-07-29",
    "recency_bucket": "3_9m",
    "is_recent_3m": false
  },
  {
    "lat": 21.2755478,
    "lng": 81.6875137,
    "type": "pickpocketing",
    "severity": 2,
    "label": "UCB",
    "source": "osm_overpass",
    "osm_id": 4446203517,
    "months_ago": 7.32,
    "timestamp": "2025-04-17",
    "recency_bucket": "3_9m",
    "is_recent_3m": false
  },
  {
    "lat": 21.2756112,
    "lng": 81.6875697,
    "type": "pickpocketing",
    "severity": 2,
    "label": "allen solly",
    "source": "osm_overpass",
    "osm_id": 4446206639,
    "months_ago": 6.86,
    "timestamp": "2025-05-01",
    "recency_bucket": "3_9m",
    "is_recent_3m": false
  },
  {
    "lat": 21.2763309,
    "lng": 81.6871856,
    "type": "pickpocketing",
    "severity": 2,
    "label": "van heusen",
    "source": "osm_overpass",
    "osm_id": 4446216240,
    "months_ago": 1.45,
    "timestamp": "2025-10-10",
    "recency_bucket": "0_3m",
    "is_recent_3m": true
  },
  {
    "lat": 21.2497328,
    "lng": 81.646142,
    "type": "pickpocketing",
    "severity": 2,
    "label": "Fastrack",
    "source": "osm_overpass",
    "osm_id": 4446217570,
    "months_ago": 12.31,
    "timestamp": "2024-11-19",
    "recency_bucket": "9m_plus",
    "is_recent_3m": false
  },
  {
    "lat": 21.2752292,
    "lng": 81.688029,
    "type": "pickpocketing",
    "severity": 2,
    "label": "fab inida",
    "source": "osm_overpass",
    "osm_id": 4446223830,
    "months_ago": 3.34,
    "timestamp": "2025-08-15",
    "recency_bucket": "3_9m",
    "is_recent_3m": false
  },
  {
    "lat": 21.2497003,
    "lng": 81.6461699,
    "type": "pickpocketing",
    "severity": 2,
    "label": "Eman Tour&Travels",
    "source": "osm_overpass",
    "osm_id": 4446232233,
    "months_ago": 2.35,
    "timestamp": "2025-09-13",
    "recency_bucket": "0_3m",
    "is_recent_3m": true
  },
  {
    "lat": 21.2495134,
    "lng": 81.6462399,
    "type": "pickpocketing",
    "severity": 2,
    "label": "Havells Galaxy",
    "source": "osm_overpass",
    "osm_id": 4446236974,
    "months_ago": 7.81,
    "timestamp": "2025-04-03",
    "recency_bucket": "3_9m",
    "is_recent_3m": false
  },
  {
    "lat": 21.2494284,
    "lng": 81.6458466,
    "type": "pickpocketing",
    "severity": 2,
    "label": "JMC Jethanand And Sons",
    "source": "osm_overpass",
    "osm_id": 4446243004,
    "months_ago": 5.86,
    "timestamp": "2025-05-31",
    "recency_bucket": "3_9m",
    "is_recent_3m": false
  },
  {
    "lat": 21.2755345,
    "lng": 81.6878167,
    "type": "pickpocketing",
    "severity": 2,
    "label": "pantaloons",
    "source": "osm_overpass",
    "osm_id": 4446277699,
    "months_ago": 5.21,
    "timestamp": "2025-06-20",
    "recency_bucket": "3_9m",
    "is_recent_3m": false
  },
  {
    "lat": 21.2765311,
    "lng": 81.6875359,
    "type": "pickpocketing",
    "severity": 2,
    "label": "khadims",
    "source": "osm_overpass",
    "osm_id": 4446281018,
    "months_ago": 4.24,
    "timestamp": "2025-07-19",
    "recency_bucket": "3_9m",
    "is_recent_3m": false
  },
  {
    "lat": 21.2759533,
    "lng": 81.687306,
    "type": "pickpocketing",
    "severity": 2,
    "label": "Nike",
    "source": "osm_overpass",
    "osm_id": 4446285589,
    "months_ago": 2.09,
    "timestamp": "2025-09-21",
    "recency_bucket": "0_3m",
    "is_recent_3m": true
  },
  {
    "lat": 21.2759533,
    "lng": 81.6877728,
    "type": "pickpocketing",
    "severity": 2,
    "label": "spykar",
    "source": "osm_overpass",
    "osm_id": 4446289813,
    "months_ago": 1.82,
    "timestamp": "2025-09-29",
    "recency_bucket": "0_3m",
    "is_recent_3m": true
  },
  {
    "lat": 21.2753884,
    "lng": 81.6879191,
    "type": "pickpocketing",
    "severity": 2,
    "label": "Archies",
    "source": "osm_overpass",
    "osm_id": 4446293619,
    "months_ago": 6.17,
    "timestamp": "2025-05-22",
    "recency_bucket": "3_9m",
    "is_recent_3m": false
  },
  {
    "lat": 21.275752,
    "lng": 81.6873548,
    "type": "pickpocketing",
    "severity": 2,
    "label": "Levis",
    "source": "osm_overpass",
    "osm_id": 4446299942,
    "months_ago": 6.0,
    "timestamp": "2025-05-27",
    "recency_bucket": "3_9m",
    "is_recent_3m": false
  },
  {
    "lat": 21.2752716,
    "lng": 81.6875568,
    "type": "pickpocketing",
    "severity": 2,
    "label": "Vero Moda",
    "source": "osm_overpass",
    "osm_id": 4446300985,
    "months_ago": 11.96,
    "timestamp": "2024-11-29",
    "recency_bucket": "9m_plus",
    "is_recent_3m": false
  },
  {
    "lat": 21.2748739,
    "lng": 81.687941,
    "type": "pickpocketing",
    "severity": 2,
    "label": "tea junction",
    "source": "osm_overpass",
    "osm_id": 4446311898,
    "months_ago": 6.64,
    "timestamp": "2025-05-08",
    "recency_bucket": "3_9m",
    "is_recent_3m": false
  },
  {
    "lat": 21.2747475,
    "lng": 81.6881136,
    "type": "pickpocketing",
    "severity": 2,
    "label": "simply sinfull",
    "source": "osm_overpass",
    "osm_id": 4446314274,
    "months_ago": 0.49,
    "timestamp": "2025-11-08",
    "recency_bucket": "0_3m",
    "is_recent_3m": true
  },
  {
    "lat": 21.2432581,
    "lng": 81.6336152,
    "type": "pickpocketing",
    "severity": 2,
    "label": "Maharaja Enterprises",
    "source": "osm_overpass",
    "osm_id": 4446320114,
    "months_ago": 7.68,
    "timestamp": "2025-04-06",
    "recency_bucket": "3_9m",
    "is_recent_3m": false
  },
  {
    "lat": 21.2764128,
    "lng": 81.6876083,
    "type": "pickpocketing",
    "severity": 2,
    "label": "prime",
    "source": "osm_overpass",
    "osm_id": 4446323285,
    "months_ago": 5.47,
    "timestamp": "2025-06-12",
    "recency_bucket": "3_9m",
    "is_recent_3m": false
  },
  {
    "lat": 21.2744604,
    "lng": 81.6878055,
    "type": "pickpocketing",
    "severity": 2,
    "label": "max",
    "source": "osm_overpass",
    "osm_id": 4446329529,
    "months_ago": 7.28,
    "timestamp": "2025-04-19",
    "recency_bucket": "3_9m",
    "is_recent_3m": false
  },
  {
    "lat": 21.2754603,
    "lng": 81.6877348,
    "type": "pickpocketing",
    "severity": 2,
    "label": "Bata",
    "source": "osm_overpass",
    "osm_id": 4446331937,
    "months_ago": 1.01,
    "timestamp": "2025-10-24",
    "recency_bucket": "0_3m",
    "is_recent_3m": true
  },
  {
    "lat": 21.2365832,
    "lng": 81.6860442,
    "type": "pickpocketing",
    "severity": 2,
    "label": "Prapti Fashion",
    "source": "osm_overpass",
    "osm_id": 4446381868,
    "months_ago": 2.93,
    "timestamp": "2025-08-27",
    "recency_bucket": "0_3m",
    "is_recent_3m": true
  },
  {
    "lat": 21.2362546,
    "lng": 81.685753,
    "type": "pickpocketing",
    "severity": 2,
    "label": "Mufti",
    "source": "osm_overpass",
    "osm_id": 4446409339,
    "months_ago": 9.97,
    "timestamp": "2025-01-28",
    "recency_bucket": "9m_plus",
    "is_recent_3m": false
  },
  {
    "lat": 21.2362722,
    "lng": 81.6858601,
    "type": "pickpocketing",
    "severity": 2,
    "label": "Colorpus",
    "source": "osm_overpass",
    "osm_id": 4446431686,
    "months_ago": 6.05,
    "timestamp": "2025-05-25",
    "recency_bucket": "3_9m",
    "is_recent_3m": false
  },
  {
    "lat": 21.2363118,
    "lng": 81.685791,
    "type": "pickpocketing",
    "severity": 2,
    "label": "Wills Life Style",
    "source": "osm_overpass",
    "osm_id": 4446450696,
    "months_ago": 1.8,
    "timestamp": "2025-09-30",
    "recency_bucket": "0_3m",
    "is_recent_3m": true
  },
  {
    "lat": 21.2362987,
    "lng": 81.6857035,
    "type": "pickpocketing",
    "severity": 2,
    "label": "John Players",
    "source": "osm_overpass",
    "osm_id": 4446475083,
    "months_ago": 10.33,
    "timestamp": "2025-01-17",
    "recency_bucket": "9m_plus",
    "is_recent_3m": false
  },
  {
    "lat": 21.2377488,
    "lng": 81.6355159,
    "type": "pickpocketing",
    "severity": 2,
    "label": "Arihant Jewellers",
    "source": "osm_overpass",
    "osm_id": 4446486983,
    "months_ago": 6.5,
    "timestamp": "2025-05-12",
    "recency_bucket": "3_9m",
    "is_recent_3m": false
  },
  {
    "lat": 21.2365463,
    "lng": 81.6855828,
    "type": "pickpocketing",
    "severity": 2,
    "label": "Krome",
    "source": "osm_overpass",
    "osm_id": 4446489907,
    "months_ago": 7.35,
    "timestamp": "2025-04-17",
    "recency_bucket": "3_9m",
    "is_recent_3m": false
  },
  {
    "lat": 21.2379681,
    "lng": 81.6346377,
    "type": "pickpocketing",
    "severity": 2,
    "label": "Shree Shubh Diamonds",
    "source": "osm_overpass",
    "osm_id": 4446497303,
    "months_ago": 1.55,
    "timestamp": "2025-10-07",
    "recency_bucket": "0_3m",
    "is_recent_3m": true
  },
  {
    "lat": 21.2365769,
    "lng": 81.6856767,
    "type": "pickpocketing",
    "severity": 2,
    "label": "Liberty",
    "source": "osm_overpass",
    "osm_id": 4446506678,
    "months_ago": 0.84,
    "timestamp": "2025-10-29",
    "recency_bucket": "0_3m",
    "is_recent_3m": true
  },
  {
    "lat": 21.2365787,
    "lng": 81.6856575,
    "type": "pickpocketing",
    "severity": 2,
    "label": "Sepia",
    "source": "osm_overpass",
    "osm_id": 4446510201,
    "months_ago": 7.41,
    "timestamp": "2025-04-15",
    "recency_bucket": "3_9m",
    "is_recent_3m": false
  },
  {
    "lat": 21.2387656,
    "lng": 81.6296134,
    "type": "pickpocketing",
    "severity": 2,
    "label": "Jinkushal Jewellers",
    "source": "osm_overpass",
    "osm_id": 4446511828,
    "months_ago": 10.22,
    "timestamp": "2025-01-20",
    "recency_bucket": "9m_plus",
    "is_recent_3m": false
  },
  {
    "lat": 21.2362577,
    "lng": 81.6857279,
    "type": "pickpocketing",
    "severity": 2,
    "label": "Prouogue",
    "source": "osm_overpass",
    "osm_id": 4446524400,
    "months_ago": 8.88,
    "timestamp": "2025-03-02",
    "recency_bucket": "3_9m",
    "is_recent_3m": false
  },
  {
    "lat": 21.2362757,
    "lng": 81.6856003,
    "type": "pickpocketing",
    "severity": 2,
    "label": "Club Mahimdhra",
    "source": "osm_overpass",
    "osm_id": 4446556956,
    "months_ago": 5.16,
    "timestamp": "2025-06-21",
    "recency_bucket": "3_9m",
    "is_recent_3m": false
  },
  {
    "lat": 21.2362987,
    "lng": 81.6859112,
    "type": "pickpocketing",
    "severity": 2,
    "label": "Adidas",
    "source": "osm_overpass",
    "osm_id": 4446601363,
    "months_ago": 13.94,
    "timestamp": "2024-10-01",
    "recency_bucket": "9m_plus",
    "is_recent_3m": false
  },
  {
    "lat": 21.2363887,
    "lng": 81.6855947,
    "type": "pickpocketing",
    "severity": 2,
    "label": "K Lounge",
    "source": "osm_overpass",
    "osm_id": 4446613164,
    "months_ago": 7.73,
    "timestamp": "2025-04-05",
    "recency_bucket": "3_9m",
    "is_recent_3m": false
  },
  {
    "lat": 21.2364013,
    "lng": 81.6857207,
    "type": "pickpocketing",
    "severity": 2,
    "label": "Archies",
    "source": "osm_overpass",
    "osm_id": 4446631668,
    "months_ago": 5.67,
    "timestamp": "2025-06-06",
    "recency_bucket": "3_9m",
    "is_recent_3m": false
  },
  {
    "lat": 21.2330847,
    "lng": 81.6583565,
    "type": "pickpocketing",
    "severity": 2,
    "label": "big bazar",
    "source": "osm_overpass",
    "osm_id": 4446650737,
    "months_ago": 13.16,
    "timestamp": "2024-10-24",
    "recency_bucket": "9m_plus",
    "is_recent_3m": false
  },
  {
    "lat": 21.2363462,
    "lng": 81.685872,
    "type": "pickpocketing",
    "severity": 2,
    "label": "Delesey India",
    "source": "osm_overpass",
    "osm_id": 4446664936,
    "months_ago": 3.34,
    "timestamp": "2025-08-15",
    "recency_bucket": "3_9m",
    "is_recent_3m": false
  },
  {
    "lat": 21.2363781,
    "lng": 81.685746,
    "type": "pickpocketing",
    "severity": 2,
    "label": "Indian Terrain",
    "source": "osm_overpass",
    "osm_id": 4446670137,
    "months_ago": 2.43,
    "timestamp": "2025-09-11",
    "recency_bucket": "0_3m",
    "is_recent_3m": true
  },
  {
    "lat": 21.2363947,
    "lng": 81.6857939,
    "type": "pickpocketing",
    "severity": 2,
    "label": "Reid$Taylor",
    "source": "osm_overpass",
    "osm_id": 4446675181,
    "months_ago": 5.87,
    "timestamp": "2025-05-31",
    "recency_bucket": "3_9m",
    "is_recent_3m": false
  },
  {
    "lat": 21.2363568,
    "lng": 81.6856766,
    "type": "pickpocketing",
    "severity": 2,
    "label": "Ayesha Hi Design Holy",
    "source": "osm_overpass",
    "osm_id": 4446676470,
    "months_ago": 2.14,
    "timestamp": "2025-09-20",
    "recency_bucket": "0_3m",
    "is_recent_3m": true
  },
  {
    "lat": 21.2364519,
    "lng": 81.6857522,
    "type": "pickpocketing",
    "severity": 2,
    "label": "Lotous Electronics [First Floor]",
    "source": "osm_overpass",
    "osm_id": 4446683421,
    "months_ago": 5.44,
    "timestamp": "2025-06-13",
    "recency_bucket": "3_9m",
    "is_recent_3m": false
  },
  {
    "lat": 21.2364358,
    "lng": 81.6856597,
    "type": "pickpocketing",
    "severity": 2,
    "label": "Lotous Electronics [",
    "source": "osm_overpass",
    "osm_id": 4446683422,
    "months_ago": 13.71,
    "timestamp": "2024-10-08",
    "recency_bucket": "9m_plus",
    "is_recent_3m": false
  },
  {
    "lat": 21.2363788,
    "lng": 81.6858426,
    "type": "pickpocketing",
    "severity": 2,
    "label": "lee",
    "source": "osm_overpass",
    "osm_id": 4446717294,
    "months_ago": 3.0,
    "timestamp": "2025-08-25",
    "recency_bucket": "3_9m",
    "is_recent_3m": false
  },
  {
    "lat": 21.2363532,
    "lng": 81.6858406,
    "type": "pickpocketing",
    "severity": 2,
    "label": "clothes",
    "source": "osm_overpass",
    "osm_id": 4446717295,
    "months_ago": 5.61,
    "timestamp": "2025-06-08",
    "recency_bucket": "3_9m",
    "is_recent_3m": false
  },
  {
    "lat": 21.2364276,
    "lng": 81.6859043,
    "type": "pickpocketing",
    "severity": 2,
    "label": "Nostrum",
    "source": "osm_overpass",
    "osm_id": 4446722955,
    "months_ago": 0.68,
    "timestamp": "2025-11-03",
    "recency_bucket": "0_3m",
    "is_recent_3m": true
  },
  {
    "lat": 21.2406681,
    "lng": 81.6840531,
    "type": "pickpocketing",
    "severity": 2,
    "label": "ZODIAC",
    "source": "osm_overpass",
    "osm_id": 4446879012,
    "months_ago": 4.76,
    "timestamp": "2025-07-03",
    "recency_bucket": "3_9m",
    "is_recent_3m": false
  },
  {
    "lat": 21.2401573,
    "lng": 81.6840573,
    "type": "pickpocketing",
    "severity": 2,
    "label": "Tommy Hillfigure",
    "source": "osm_overpass",
    "osm_id": 4446883899,
    "months_ago": 2.97,
    "timestamp": "2025-08-26",
    "recency_bucket": "0_3m",
    "is_recent_3m": true
  },
  {
    "lat": 21.2404576,
    "lng": 81.6843924,
    "type": "pickpocketing",
    "severity": 2,
    "label": "Mother Care",
    "source": "osm_overpass",
    "osm_id": 4446884078,
    "months_ago": 1.95,
    "timestamp": "2025-09-25",
    "recency_bucket": "0_3m",
    "is_recent_3m": true
  },
  {
    "lat": 21.2405706,
    "lng": 81.6843899,
    "type": "pickpocketing",
    "severity": 2,
    "label": "metro",
    "source": "osm_overpass",
    "osm_id": 4446886647,
    "months_ago": 2.48,
    "timestamp": "2025-09-10",
    "recency_bucket": "0_3m",
    "is_recent_3m": true
  },
  {
    "lat": 21.2549063,
    "lng": 81.6467353,
    "type": "pickpocketing",
    "severity": 2,
    "label": "Wills Lifestyle",
    "source": "osm_overpass",
    "osm_id": 4446889637,
    "months_ago": 5.36,
    "timestamp": "2025-06-15",
    "recency_bucket": "3_9m",
    "is_recent_3m": false
  },
  {
    "lat": 21.2407633,
    "lng": 81.6843913,
    "type": "pickpocketing",
    "severity": 2,
    "label": "Himalya OPTICALS",
    "source": "osm_overpass",
    "osm_id": 4446891879,
    "months_ago": 5.02,
    "timestamp": "2025-06-25",
    "recency_bucket": "3_9m",
    "is_recent_3m": false
  },
  {
    "lat": 21.2397777,
    "lng": 81.6841159,
    "type": "pickpocketing",
    "severity": 2,
    "label": "Dulhan",
    "source": "osm_overpass",
    "osm_id": 4446896940,
    "months_ago": 6.36,
    "timestamp": "2025-05-16",
    "recency_bucket": "3_9m",
    "is_recent_3m": false
  },
  {
    "lat": 21.2409347,
    "lng": 81.6841075,
    "type": "pickpocketing",
    "severity": 2,
    "label": "Pepe Jeans",
    "source": "osm_overpass",
    "osm_id": 4446906399,
    "months_ago": 4.93,
    "timestamp": "2025-06-28",
    "recency_bucket": "3_9m",
    "is_recent_3m": false
  },
  {
    "lat": 21.2410423,
    "lng": 81.6841175,
    "type": "pickpocketing",
    "severity": 2,
    "label": "Chemistry",
    "source": "osm_overpass",
    "osm_id": 4446907711,
    "months_ago": 5.81,
    "timestamp": "2025-06-02",
    "recency_bucket": "3_9m",
    "is_recent_3m": false
  },
  {
    "lat": 21.2411586,
    "lng": 81.6841349,
    "type": "pickpocketing",
    "severity": 2,
    "label": "Raymond",
    "source": "osm_overpass",
    "osm_id": 4446908522,
    "months_ago": 6.76,
    "timestamp": "2025-05-04",
    "recency_bucket": "3_9m",
    "is_recent_3m": false
  },
  {
    "lat": 21.2412206,
    "lng": 81.6841443,
    "type": "pickpocketing",
    "severity": 2,
    "label": "Raymond Made 2 Measure",
    "source": "osm_overpass",
    "osm_id": 4446911602,
    "months_ago": 7.53,
    "timestamp": "2025-04-11",
    "recency_bucket": "3_9m",
    "is_recent_3m": false
  },
  {
    "lat": 21.2419293,
    "lng": 81.6842717,
    "type": "pickpocketing",
    "severity": 2,
    "label": "My Ways",
    "source": "osm_overpass",
    "osm_id": 4446912139,
    "months_ago": 0.89,
    "timestamp": "2025-10-27",
    "recency_bucket": "0_3m",
    "is_recent_3m": true
  },
  {
    "lat": 21.2411121,
    "lng": 81.684417,
    "type": "pickpocketing",
    "severity": 2,
    "label": "Rayban",
    "source": "osm_overpass",
    "osm_id": 4446913325,
    "months_ago": 5.46,
    "timestamp": "2025-06-12",
    "recency_bucket": "3_9m",
    "is_recent_3m": false
  },
  {
    "lat": 21.2407021,
    "lng": 81.6843419,
    "type": "pickpocketing",
    "severity": 2,
    "label": "Meena Bazzar",
    "source": "osm_overpass",
    "osm_id": 4446914653,
    "months_ago": 12.98,
    "timestamp": "2024-10-30",
    "recency_bucket": "9m_plus",
    "is_recent_3m": false
  },
  {
    "lat": 21.24149,
    "lng": 81.6844057,
    "type": "pickpocketing",
    "severity": 2,
    "label": "Bonsai",
    "source": "osm_overpass",
    "osm_id": 4446915221,
    "months_ago": 14.94,
    "timestamp": "2024-09-01",
    "recency_bucket": "9m_plus",
    "is_recent_3m": false
  },
  {
    "lat": 21.2410606,
    "lng": 81.6841812,
    "type": "pickpocketing",
    "severity": 2,
    "label": "Nostrum",
    "source": "osm_overpass",
    "osm_id": 4446915920,
    "months_ago": 3.97,
    "timestamp": "2025-07-27",
    "recency_bucket": "3_9m",
    "is_recent_3m": false
  },
  {
    "lat": 21.239875,
    "lng": 81.6843127,
    "type": "pickpocketing",
    "severity": 2,
    "label": "Lub Dub",
    "source": "osm_overpass",
    "osm_id": 4446919112,
    "months_ago": 3.94,
    "timestamp": "2025-07-28",
    "recency_bucket": "3_9m",
    "is_recent_3m": false
  },
  {
    "lat": 21.2406521,
    "lng": 81.6844063,
    "type": "pickpocketing",
    "severity": 2,
    "label": "puma",
    "source": "osm_overpass",
    "osm_id": 4446919818,
    "months_ago": 6.7,
    "timestamp": "2025-05-06",
    "recency_bucket": "3_9m",
    "is_recent_3m": false
  },
  {
    "lat": 21.2402998,
    "lng": 81.6840584,
    "type": "pickpocketing",
    "severity": 2,
    "label": "Levi's",
    "source": "osm_overpass",
    "osm_id": 4446923445,
    "months_ago": 6.21,
    "timestamp": "2025-05-21",
    "recency_bucket": "3_9m",
    "is_recent_3m": false
  },
  {
    "lat": 21.2400873,
    "lng": 81.6840424,
    "type": "pickpocketing",
    "severity": 2,
    "label": "Louis Phillipe",
    "source": "osm_overpass",
    "osm_id": 4446923460,
    "months_ago": 4.6,
    "timestamp": "2025-07-08",
    "recency_bucket": "3_9m",
    "is_recent_3m": false
  },
  {
    "lat": 21.2404673,
    "lng": 81.6840933,
    "type": "pickpocketing",
    "severity": 2,
    "label": "black berry",
    "source": "osm_overpass",
    "osm_id": 4446927548,
    "months_ago": 1.27,
    "timestamp": "2025-10-16",
    "recency_bucket": "0_3m",
    "is_recent_3m": true
  },
  {
    "lat": 21.2173038,
    "lng": 81.6567044,
    "type": "pickpocketing",
    "severity": 2,
    "label": "Diya's Spa &Salon",
    "source": "osm_overpass",
    "osm_id": 4446987682,
    "months_ago": 10.57,
    "timestamp": "2025-01-10",
    "recency_bucket": "9m_plus",
    "is_recent_3m": false
  },
  {
    "lat": 21.2408963,
    "lng": 81.6844231,
    "type": "pickpocketing",
    "severity": 2,
    "label": "Avenue",
    "source": "osm_overpass",
    "osm_id": 4446991866,
    "months_ago": 3.82,
    "timestamp": "2025-07-31",
    "recency_bucket": "3_9m",
    "is_recent_3m": false
  },
  {
    "lat": 21.2403688,
    "lng": 81.6841683,
    "type": "pickpocketing",
    "severity": 2,
    "label": "Lajja",
    "source": "osm_overpass",
    "osm_id": 4446992591,
    "months_ago": 12.08,
    "timestamp": "2024-11-26",
    "recency_bucket": "9m_plus",
    "is_recent_3m": false
  },
  {
    "lat": 21.2403138,
    "lng": 81.684171,
    "type": "pickpocketing",
    "severity": 2,
    "label": "Kings Collar",
    "source": "osm_overpass",
    "osm_id": 4446998908,
    "months_ago": 3.69,
    "timestamp": "2025-08-04",
    "recency_bucket": "3_9m",
    "is_recent_3m": false
  },
  {
    "lat": 21.2622715,
    "lng": 81.6587078,
    "type": "pickpocketing",
    "severity": 2,
    "label": "grand honda",
    "source": "osm_overpass",
    "osm_id": 4446999234,
    "months_ago": 1.72,
    "timestamp": "2025-10-02",
    "recency_bucket": "0_3m",
    "is_recent_3m": true
  },
  {
    "lat": 21.2405488,
    "lng": 81.6844016,
    "type": "pickpocketing",
    "severity": 2,
    "label": "Van Heusen",
    "source": "osm_overpass",
    "osm_id": 4447001939,
    "months_ago": 2.22,
    "timestamp": "2025-09-17",
    "recency_bucket": "0_3m",
    "is_recent_3m": true
  },
  {
    "lat": 21.2449358,
    "lng": 81.6393397,
    "type": "pickpocketing",
    "severity": 2,
    "label": "dell exclusive stores",
    "source": "osm_overpass",
    "osm_id": 4447009760,
    "months_ago": 2.22,
    "timestamp": "2025-09-17",
    "recency_bucket": "0_3m",
    "is_recent_3m": true
  },
  {
    "lat": 21.2173588,
    "lng": 81.6566239,
    "type": "pickpocketing",
    "severity": 2,
    "label": "STOLN",
    "source": "osm_overpass",
    "osm_id": 4447019577,
    "months_ago": 5.17,
    "timestamp": "2025-06-21",
    "recency_bucket": "3_9m",
    "is_recent_3m": false
  },
  {
    "lat": 21.2515,
    "lng": 81.6297031,
    "type": "pickpocketing",
    "severity": 2,
    "label": "aero agro chemicals industry limited",
    "source": "osm_overpass",
    "osm_id": 4447019958,
    "months_ago": 1.36,
    "timestamp": "2025-10-13",
    "recency_bucket": "0_3m",
    "is_recent_3m": true
  },
  {
    "lat": 21.2173688,
    "lng": 81.6564791,
    "type": "pickpocketing",
    "severity": 2,
    "label": "The Hanger",
    "source": "osm_overpass",
    "osm_id": 4447020517,
    "months_ago": 3.4,
    "timestamp": "2025-08-13",
    "recency_bucket": "3_9m",
    "is_recent_3m": false
  },
  {
    "lat": 21.2169737,
    "lng": 81.6563289,
    "type": "pickpocketing",
    "severity": 2,
    "label": "Aura",
    "source": "osm_overpass",
    "osm_id": 4447022376,
    "months_ago": 5.73,
    "timestamp": "2025-06-04",
    "recency_bucket": "3_9m",
    "is_recent_3m": false
  },
  {
    "lat": 21.24103,
    "lng": 81.6370346,
    "type": "pickpocketing",
    "severity": 2,
    "label": "rajesh industries sanjay chemicals",
    "source": "osm_overpass",
    "osm_id": 4447022609,
    "months_ago": 1.0,
    "timestamp": "2025-10-24",
    "recency_bucket": "0_3m",
    "is_recent_3m": true
  },
  {
    "lat": 21.2169803,
    "lng": 81.6565116,
    "type": "pickpocketing",
    "severity": 2,
    "label": "Fitness De Royale",
    "source": "osm_overpass",
    "osm_id": 4447072341,
    "months_ago": 10.73,
    "timestamp": "2025-01-05",
    "recency_bucket": "9m_plus",
    "is_recent_3m": false
  },
  {
    "lat": 21.2402537,
    "lng": 81.6840561,
    "type": "pickpocketing",
    "severity": 2,
    "label": "Gini $ Jony",
    "source": "osm_overpass",
    "osm_id": 4447077769,
    "months_ago": 8.94,
    "timestamp": "2025-02-28",
    "recency_bucket": "3_9m",
    "is_recent_3m": false
  },
  {
    "lat": 21.2403972,
    "lng": 81.6840635,
    "type": "pickpocketing",
    "severity": 2,
    "label": "Vinegar",
    "source": "osm_overpass",
    "osm_id": 4447080816,
    "months_ago": 1.87,
    "timestamp": "2025-09-28",
    "recency_bucket": "0_3m",
    "is_recent_3m": true
  },
  {
    "lat": 21.256325,
    "lng": 81.5924154,
    "type": "pickpocketing",
    "severity": 2,
    "label": "max fashions",
    "source": "osm_overpass",
    "osm_id": 4447084327,
    "months_ago": 12.4,
    "timestamp": "2024-11-16",
    "recency_bucket": "9m_plus",
    "is_recent_3m": false
  },
  {
    "lat": 21.2402807,
    "lng": 81.6841183,
    "type": "pickpocketing",
    "severity": 2,
    "label": "Azmi optic",
    "source": "osm_overpass",
    "osm_id": 4447100074,
    "months_ago": 1.82,
    "timestamp": "2025-09-29",
    "recency_bucket": "0_3m",
    "is_recent_3m": true
  },
  {
    "lat": 21.2404603,
    "lng": 81.6841533,
    "type": "pickpocketing",
    "severity": 2,
    "label": "Wildcrafts",
    "source": "osm_overpass",
    "osm_id": 4447103321,
    "months_ago": 12.71,
    "timestamp": "2024-11-07",
    "recency_bucket": "9m_plus",
    "is_recent_3m": false
  },
  {
    "lat": 21.2405604,
    "lng": 81.6841697,
    "type": "pickpocketing",
    "severity": 2,
    "label": "Indigo nation",
    "source": "osm_overpass",
    "osm_id": 4447105185,
    "months_ago": 10.04,
    "timestamp": "2025-01-26",
    "recency_bucket": "9m_plus",
    "is_recent_3m": false
  },
  {
    "lat": 21.240675,
    "lng": 81.6843591,
    "type": "pickpocketing",
    "severity": 2,
    "label": "Woodland",
    "source": "osm_overpass",
    "osm_id": 4447105973,
    "months_ago": 5.45,
    "timestamp": "2025-06-13",
    "recency_bucket": "3_9m",
    "is_recent_3m": false
  },
  {
    "lat": 21.24054,
    "lng": 81.6843711,
    "type": "pickpocketing",
    "severity": 2,
    "label": "John Millers",
    "source": "osm_overpass",
    "osm_id": 4447108776,
    "months_ago": 8.63,
    "timestamp": "2025-03-09",
    "recency_bucket": "3_9m",
    "is_recent_3m": false
  },
  {
    "lat": 21.24053,
    "lng": 81.6843202,
    "type": "pickpocketing",
    "severity": 2,
    "label": "Madumu",
    "source": "osm_overpass",
    "osm_id": 4447111231,
    "months_ago": 6.11,
    "timestamp": "2025-05-24",
    "recency_bucket": "3_9m",
    "is_recent_3m": false
  },
  {
    "lat": 21.2405209,
    "lng": 81.6842769,
    "type": "pickpocketing",
    "severity": 2,
    "label": "Flying Machine",
    "source": "osm_overpass",
    "osm_id": 4447117391,
    "months_ago": 2.27,
    "timestamp": "2025-09-16",
    "recency_bucket": "0_3m",
    "is_recent_3m": true
  },
  {
    "lat": 21.2395254,
    "lng": 81.6842581,
    "type": "pickpocketing",
    "severity": 2,
    "label": "Mufti",
    "source": "osm_overpass",
    "osm_id": 4447118937,
    "months_ago": 10.97,
    "timestamp": "2024-12-29",
    "recency_bucket": "9m_plus",
    "is_recent_3m": false
  },
  {
    "lat": 21.2403376,
    "lng": 81.6841327,
    "type": "pickpocketing",
    "severity": 2,
    "label": "Club Fox",
    "source": "osm_overpass",
    "osm_id": 4447125572,
    "months_ago": 6.54,
    "timestamp": "2025-05-11",
    "recency_bucket": "3_9m",
    "is_recent_3m": false
  },
  {
    "lat": 21.2404885,
    "lng": 81.684347,
    "type": "pickpocketing",
    "severity": 2,
    "label": "wrangler",
    "source": "osm_overpass",
    "osm_id": 4447135316,
    "months_ago": 6.23,
    "timestamp": "2025-05-20",
    "recency_bucket": "3_9m",
    "is_recent_3m": false
  },
  {
    "lat": 21.2404261,
    "lng": 81.684344,
    "type": "pickpocketing",
    "severity": 2,
    "label": "SHE'S Passion",
    "source": "osm_overpass",
    "osm_id": 4447138605,
    "months_ago": 13.28,
    "timestamp": "2024-10-21",
    "recency_bucket": "9m_plus",
    "is_recent_3m": false
  },
  {
    "lat": 21.2407436,
    "lng": 81.6843842,
    "type": "pickpocketing",
    "severity": 2,
    "label": "SHE'S Passion",
    "source": "osm_overpass",
    "osm_id": 4447143248,
    "months_ago": 8.49,
    "timestamp": "2025-03-13",
    "recency_bucket": "3_9m",
    "is_recent_3m": false
  },
  {
    "lat": 21.2408124,
    "lng": 81.6844137,
    "type": "pickpocketing",
    "severity": 2,
    "label": "Vastram",
    "source": "osm_overpass",
    "osm_id": 4447155106,
    "months_ago": 4.22,
    "timestamp": "2025-07-19",
    "recency_bucket": "3_9m",
    "is_recent_3m": false
  },
  {
    "lat": 21.2408724,
    "lng": 81.6844352,
    "type": "pickpocketing",
    "severity": 2,
    "label": "HR Fashion",
    "source": "osm_overpass",
    "osm_id": 4447158394,
    "months_ago": 14.55,
    "timestamp": "2024-09-12",
    "recency_bucket": "9m_plus",
    "is_recent_3m": false
  },
  {
    "lat": 21.2564637,
    "lng": 81.5923566,
    "type": "pickpocketing",
    "severity": 2,
    "label": "sachipro store",
    "source": "osm_overpass",
    "osm_id": 4447344141,
    "months_ago": 5.16,
    "timestamp": "2025-06-21",
    "recency_bucket": "3_9m",
    "is_recent_3m": false
  },
  {
    "lat": 21.2562712,
    "lng": 81.5925637,
    "type": "pickpocketing",
    "severity": 2,
    "label": "united colors of beneton",
    "source": "osm_overpass",
    "osm_id": 4447347403,
    "months_ago": 3.69,
    "timestamp": "2025-08-04",
    "recency_bucket": "3_9m",
    "is_recent_3m": false
  },
  {
    "lat": 21.2759234,
    "lng": 81.6872581,
    "type": "pickpocketing",
    "severity": 2,
    "label": "arth metallaurgical pvt.ltd.",
    "source": "osm_overpass",
    "osm_id": 4447373542,
    "months_ago": 2.57,
    "timestamp": "2025-09-07",
    "recency_bucket": "0_3m",
    "is_recent_3m": true
  },
  {
    "lat": 21.2354813,
    "lng": 81.6665521,
    "type": "pickpocketing",
    "severity": 2,
    "label": "IDEAL chemicals",
    "source": "osm_overpass",
    "osm_id": 4447373543,
    "months_ago": 11.33,
    "timestamp": "2024-12-18",
    "recency_bucket": "9m_plus",
    "is_recent_3m": false
  },
  {
    "lat": 21.2343051,
    "lng": 81.6661558,
    "type": "pickpocketing",
    "severity": 2,
    "label": "savita chemical limited",
    "source": "osm_overpass",
    "osm_id": 4447380993,
    "months_ago": 14.9,
    "timestamp": "2024-09-02",
    "recency_bucket": "9m_plus",
    "is_recent_3m": false
  },
  {
    "lat": 21.2385623,
    "lng": 81.637131,
    "type": "pickpocketing",
    "severity": 2,
    "label": "Lee",
    "source": "osm_overpass",
    "osm_id": 4447491022,
    "months_ago": 3.46,
    "timestamp": "2025-08-11",
    "recency_bucket": "3_9m",
    "is_recent_3m": false
  },
  {
    "lat": 21.2558996,
    "lng": 81.6435664,
    "type": "pickpocketing",
    "severity": 2,
    "label": "city mall",
    "source": "osm_overpass",
    "osm_id": 4539100251,
    "months_ago": 5.46,
    "timestamp": "2025-06-12",
    "recency_bucket": "3_9m",
    "is_recent_3m": false
  },
  {
    "lat": 21.2437475,
    "lng": 81.6465504,
    "type": "dark_area",
    "severity": 2,
    "label": "Jawahar Udhyan",
    "source": "osm_overpass",
    "osm_id": 4629865410,
    "months_ago": 11.82,
    "timestamp": "2024-12-03",
    "recency_bucket": "9m_plus",
    "is_recent_3m": false
  },
  {
    "lat": 21.2655959,
    "lng": 81.6645004,
    "type": "pickpocketing",
    "severity": 2,
    "label": "harsh provision",
    "source": "osm_overpass",
    "osm_id": 4712682878,
    "months_ago": 1.09,
    "timestamp": "2025-10-21",
    "recency_bucket": "0_3m",
    "is_recent_3m": true
  },
  {
    "lat": 21.2251663,
    "lng": 81.6506111,
    "type": "pickpocketing",
    "severity": 2,
    "label": "kapil provision",
    "source": "osm_overpass",
    "osm_id": 4712819850,
    "months_ago": 13.75,
    "timestamp": "2024-10-06",
    "recency_bucket": "9m_plus",
    "is_recent_3m": false
  },
  {
    "lat": 21.2240787,
    "lng": 81.650941,
    "type": "pickpocketing",
    "severity": 2,
    "label": "Ganpati provision",
    "source": "osm_overpass",
    "osm_id": 4712822743,
    "months_ago": 1.7,
    "timestamp": "2025-10-03",
    "recency_bucket": "0_3m",
    "is_recent_3m": true
  },
  {
    "lat": 21.2217823,
    "lng": 81.6487689,
    "type": "pickpocketing",
    "severity": 2,
    "label": "bicycle hub",
    "source": "osm_overpass",
    "osm_id": 4712824688,
    "months_ago": 4.93,
    "timestamp": "2025-06-28",
    "recency_bucket": "3_9m",
    "is_recent_3m": false
  },
  {
    "lat": 21.2660698,
    "lng": 81.6634775,
    "type": "pickpocketing",
    "severity": 2,
    "label": "jay medical",
    "source": "osm_overpass",
    "osm_id": 4712966909,
    "months_ago": 2.7,
    "timestamp": "2025-09-03",
    "recency_bucket": "0_3m",
    "is_recent_3m": true
  },
  {
    "lat": 21.2598987,
    "lng": 81.6585812,
    "type": "pickpocketing",
    "severity": 2,
    "label": "uni clean",
    "source": "osm_overpass",
    "osm_id": 4712985439,
    "months_ago": 4.05,
    "timestamp": "2025-07-24",
    "recency_bucket": "3_9m",
    "is_recent_3m": false
  },
  {
    "lat": 21.2585888,
    "lng": 81.6590747,
    "type": "pickpocketing",
    "severity": 2,
    "label": "vegetable shop",
    "source": "osm_overpass",
    "osm_id": 4712986900,
    "months_ago": 5.51,
    "timestamp": "2025-06-11",
    "recency_bucket": "3_9m",
    "is_recent_3m": false
  },
  {
    "lat": 21.2536282,
    "lng": 81.6619401,
    "type": "pickpocketing",
    "severity": 2,
    "label": "shimla big shop",
    "source": "osm_overpass",
    "osm_id": 4712993972,
    "months_ago": 1.9,
    "timestamp": "2025-09-27",
    "recency_bucket": "0_3m",
    "is_recent_3m": true
  },
  {
    "lat": 21.2546472,
    "lng": 81.6464148,
    "type": "pickpocketing",
    "severity": 2,
    "label": "City Centre Mall, Pandri",
    "source": "osm_overpass",
    "osm_id": 4713279121,
    "months_ago": 0.47,
    "timestamp": "2025-11-09",
    "recency_bucket": "0_3m",
    "is_recent_3m": true
  },
  {
    "lat": 21.2435836,
    "lng": 81.6103502,
    "type": "pickpocketing",
    "severity": 2,
    "label": "honda showroom",
    "source": "osm_overpass",
    "osm_id": 4713523769,
    "months_ago": 7.94,
    "timestamp": "2025-03-30",
    "recency_bucket": "3_9m",
    "is_recent_3m": false
  },
  {
    "lat": 21.243525,
    "lng": 81.6105524,
    "type": "pickpocketing",
    "severity": 2,
    "label": "jio reliance",
    "source": "osm_overpass",
    "osm_id": 4713523770,
    "months_ago": 1.51,
    "timestamp": "2025-10-09",
    "recency_bucket": "0_3m",
    "is_recent_3m": true
  },
  {
    "lat": 21.2434663,
    "lng": 81.6106737,
    "type": "pickpocketing",
    "severity": 2,
    "label": "SKB Auto",
    "source": "osm_overpass",
    "osm_id": 4713523771,
    "months_ago": 0.74,
    "timestamp": "2025-11-01",
    "recency_bucket": "0_3m",
    "is_recent_3m": true
  },
  {
    "lat": 21.2434622,
    "lng": 81.6107681,
    "type": "pickpocketing",
    "severity": 2,
    "label": "CAr shringar",
    "source": "osm_overpass",
    "osm_id": 4713523772,
    "months_ago": 4.9,
    "timestamp": "2025-06-29",
    "recency_bucket": "3_9m",
    "is_recent_3m": false
  },
  {
    "lat": 21.243458,
    "lng": 81.6108579,
    "type": "pickpocketing",
    "severity": 2,
    "label": "Ganpati motor",
    "source": "osm_overpass",
    "osm_id": 4713523773,
    "months_ago": 0.73,
    "timestamp": "2025-11-01",
    "recency_bucket": "0_3m",
    "is_recent_3m": true
  },
  {
    "lat": 21.243437,
    "lng": 81.6109298,
    "type": "pickpocketing",
    "severity": 2,
    "label": "Ganpati motor",
    "source": "osm_overpass",
    "osm_id": 4713523774,
    "months_ago": 12.28,
    "timestamp": "2024-11-19",
    "recency_bucket": "9m_plus",
    "is_recent_3m": false
  },
  {
    "lat": 21.2434161,
    "lng": 81.6111051,
    "type": "pickpocketing",
    "severity": 2,
    "label": "SAy Foundation",
    "source": "osm_overpass",
    "osm_id": 4713523775,
    "months_ago": 8.49,
    "timestamp": "2025-03-13",
    "recency_bucket": "3_9m",
    "is_recent_3m": false
  },
  {
    "lat": 21.243391,
    "lng": 81.6112264,
    "type": "pickpocketing",
    "severity": 2,
    "label": "EXIDE",
    "source": "osm_overpass",
    "osm_id": 4713523776,
    "months_ago": 14.17,
    "timestamp": "2024-09-24",
    "recency_bucket": "9m_plus",
    "is_recent_3m": false
  },
  {
    "lat": 21.2433054,
    "lng": 81.6143934,
    "type": "pickpocketing",
    "severity": 2,
    "label": "choice",
    "source": "osm_overpass",
    "osm_id": 4713523778,
    "months_ago": 5.74,
    "timestamp": "2025-06-04",
    "recency_bucket": "3_9m",
    "is_recent_3m": false
  },
  {
    "lat": 21.2431969,
    "lng": 81.6141042,
    "type": "pickpocketing",
    "severity": 2,
    "label": "pooja daily",
    "source": "osm_overpass",
    "osm_id": 4713523780,
    "months_ago": 14.82,
    "timestamp": "2024-09-04",
    "recency_bucket": "9m_plus",
    "is_recent_3m": false
  },
  {
    "lat": 21.2432284,
    "lng": 81.6139728,
    "type": "pickpocketing",
    "severity": 2,
    "label": "aarti fancy",
    "source": "osm_overpass",
    "osm_id": 4713523781,
    "months_ago": 5.02,
    "timestamp": "2025-06-25",
    "recency_bucket": "3_9m",
    "is_recent_3m": false
  },
  {
    "lat": 21.2432109,
    "lng": 81.6138676,
    "type": "pickpocketing",
    "severity": 2,
    "label": "Qutub drying centre",
    "source": "osm_overpass",
    "osm_id": 4713523782,
    "months_ago": 8.19,
    "timestamp": "2025-03-22",
    "recency_bucket": "3_9m",
    "is_recent_3m": false
  },
  {
    "lat": 21.2432268,
    "lng": 81.6137895,
    "type": "pickpocketing",
    "severity": 2,
    "label": "Shankar Graphics",
    "source": "osm_overpass",
    "osm_id": 4713523783,
    "months_ago": 6.34,
    "timestamp": "2025-05-17",
    "recency_bucket": "3_9m",
    "is_recent_3m": false
  },
  {
    "lat": 21.2432528,
    "lng": 81.6137336,
    "type": "pickpocketing",
    "severity": 2,
    "label": "Rajesh Auto",
    "source": "osm_overpass",
    "osm_id": 4713523784,
    "months_ago": 6.37,
    "timestamp": "2025-05-16",
    "recency_bucket": "3_9m",
    "is_recent_3m": false
  },
  {
    "lat": 21.2432632,
    "lng": 81.6136722,
    "type": "pickpocketing",
    "severity": 2,
    "label": "Sanjay pan shop",
    "source": "osm_overpass",
    "osm_id": 4713523785,
    "months_ago": 6.05,
    "timestamp": "2025-05-25",
    "recency_bucket": "3_9m",
    "is_recent_3m": false
  },
  {
    "lat": 21.2440266,
    "lng": 81.6096095,
    "type": "pickpocketing",
    "severity": 2,
    "label": "VIjay Auto",
    "source": "osm_overpass",
    "osm_id": 4713523786,
    "months_ago": 0.14,
    "timestamp": "2025-11-19",
    "recency_bucket": "0_3m",
    "is_recent_3m": true
  },
  {
    "lat": 21.2434253,
    "lng": 81.6132034,
    "type": "pickpocketing",
    "severity": 2,
    "label": "SAIL shop",
    "source": "osm_overpass",
    "osm_id": 4713523789,
    "months_ago": 1.23,
    "timestamp": "2025-10-17",
    "recency_bucket": "0_3m",
    "is_recent_3m": true
  },
  {
    "lat": 21.2433834,
    "lng": 81.6130633,
    "type": "pickpocketing",
    "severity": 2,
    "label": "K D AUto",
    "source": "osm_overpass",
    "osm_id": 4713523791,
    "months_ago": 2.5,
    "timestamp": "2025-09-09",
    "recency_bucket": "0_3m",
    "is_recent_3m": true
  },
  {
    "lat": 21.2434108,
    "lng": 81.6129491,
    "type": "pickpocketing",
    "severity": 2,
    "label": "AIRTEL",
    "source": "osm_overpass",
    "osm_id": 4713523794,
    "months_ago": 8.49,
    "timestamp": "2025-03-13",
    "recency_bucket": "3_9m",
    "is_recent_3m": false
  },
  {
    "lat": 21.2434488,
    "lng": 81.6128056,
    "type": "pickpocketing",
    "severity": 2,
    "label": "VESPA",
    "source": "osm_overpass",
    "osm_id": 4713523797,
    "months_ago": 12.0,
    "timestamp": "2024-11-28",
    "recency_bucket": "9m_plus",
    "is_recent_3m": false
  },
  {
    "lat": 21.2434972,
    "lng": 81.6126527,
    "type": "pickpocketing",
    "severity": 2,
    "label": "INDANE GAS",
    "source": "osm_overpass",
    "osm_id": 4713523801,
    "months_ago": 0.37,
    "timestamp": "2025-11-12",
    "recency_bucket": "0_3m",
    "is_recent_3m": true
  },
  {
    "lat": 21.2435105,
    "lng": 81.6125312,
    "type": "pickpocketing",
    "severity": 2,
    "label": "MILAN AUTO",
    "source": "osm_overpass",
    "osm_id": 4713523802,
    "months_ago": 12.02,
    "timestamp": "2024-11-27",
    "recency_bucket": "9m_plus",
    "is_recent_3m": false
  },
  {
    "lat": 21.2435065,
    "lng": 81.6124711,
    "type": "pickpocketing",
    "severity": 2,
    "label": "SAI MOTOR CARE",
    "source": "osm_overpass",
    "osm_id": 4713523803,
    "months_ago": 2.32,
    "timestamp": "2025-09-14",
    "recency_bucket": "0_3m",
    "is_recent_3m": true
  },
  {
    "lat": 21.2439183,
    "lng": 81.6106808,
    "type": "pickpocketing",
    "severity": 2,
    "label": "RAIPUR BAZAAR",
    "source": "osm_overpass",
    "osm_id": 4713523805,
    "months_ago": 0.02,
    "timestamp": "2025-11-22",
    "recency_bucket": "0_3m",
    "is_recent_3m": true
  },
  {
    "lat": 21.2252787,
    "lng": 81.6505666,
    "type": "pickpocketing",
    "severity": 2,
    "label": "go taaza",
    "source": "osm_overpass",
    "osm_id": 4714400308,
    "months_ago": 5.9,
    "timestamp": "2025-05-30",
    "recency_bucket": "3_9m",
    "is_recent_3m": false
  },
  {
    "lat": 21.2474789,
    "lng": 81.6142915,
    "type": "pickpocketing",
    "severity": 2,
    "label": "Solution point",
    "source": "osm_overpass",
    "osm_id": 4714405843,
    "months_ago": 0.08,
    "timestamp": "2025-11-21",
    "recency_bucket": "0_3m",
    "is_recent_3m": true
  },
  {
    "lat": 21.2473789,
    "lng": 81.6142486,
    "type": "pickpocketing",
    "severity": 2,
    "label": "Orbit plus",
    "source": "osm_overpass",
    "osm_id": 4714405844,
    "months_ago": 0.79,
    "timestamp": "2025-10-30",
    "recency_bucket": "0_3m",
    "is_recent_3m": true
  },
  {
    "lat": 21.2472549,
    "lng": 81.6142143,
    "type": "pickpocketing",
    "severity": 2,
    "label": "Sams creation",
    "source": "osm_overpass",
    "osm_id": 4714411230,
    "months_ago": 2.4,
    "timestamp": "2025-09-12",
    "recency_bucket": "0_3m",
    "is_recent_3m": true
  },
  {
    "lat": 21.2470334,
    "lng": 81.6141128,
    "type": "pickpocketing",
    "severity": 2,
    "label": "Laxmi Provision",
    "source": "osm_overpass",
    "osm_id": 4714411231,
    "months_ago": 4.31,
    "timestamp": "2025-07-17",
    "recency_bucket": "3_9m",
    "is_recent_3m": false
  },
  {
    "lat": 21.2470099,
    "lng": 81.6142572,
    "type": "pickpocketing",
    "severity": 2,
    "label": "Tumhare liye",
    "source": "osm_overpass",
    "osm_id": 4714411232,
    "months_ago": 8.11,
    "timestamp": "2025-03-25",
    "recency_bucket": "3_9m",
    "is_recent_3m": false
  },
  {
    "lat": 21.2469349,
    "lng": 81.6144825,
    "type": "pickpocketing",
    "severity": 2,
    "label": "Laxmi Provision",
    "source": "osm_overpass",
    "osm_id": 4714411233,
    "months_ago": 4.08,
    "timestamp": "2025-07-24",
    "recency_bucket": "3_9m",
    "is_recent_3m": false
  },
  {
    "lat": 21.2470914,
    "lng": 81.614792,
    "type": "harassment",
    "severity": 2,
    "label": "Pragati College",
    "source": "osm_overpass",
    "osm_id": 4714434473,
    "months_ago": 1.41,
    "timestamp": "2025-10-12",
    "recency_bucket": "0_3m",
    "is_recent_3m": true
  },
  {
    "lat": 21.2469538,
    "lng": 81.6142564,
    "type": "pickpocketing",
    "severity": 2,
    "label": "Ask Food Mart",
    "source": "osm_overpass",
    "osm_id": 4714434475,
    "months_ago": 0.06,
    "timestamp": "2025-11-21",
    "recency_bucket": "0_3m",
    "is_recent_3m": true
  },
  {
    "lat": 21.2469736,
    "lng": 81.6141654,
    "type": "pickpocketing",
    "severity": 2,
    "label": "Shikhar Medical",
    "source": "osm_overpass",
    "osm_id": 4714434476,
    "months_ago": 3.95,
    "timestamp": "2025-07-27",
    "recency_bucket": "3_9m",
    "is_recent_3m": false
  },
  {
    "lat": 21.222658,
    "lng": 81.649637,
    "type": "pickpocketing",
    "severity": 2,
    "label": "bicycle hub",
    "source": "osm_overpass",
    "osm_id": 4715643654,
    "months_ago": 11.81,
    "timestamp": "2024-12-04",
    "recency_bucket": "9m_plus",
    "is_recent_3m": false
  },
  {
    "lat": 21.2675421,
    "lng": 81.6739602,
    "type": "pickpocketing",
    "severity": 2,
    "label": "Kumar General Store",
    "source": "osm_overpass",
    "osm_id": 4793053248,
    "months_ago": 5.71,
    "timestamp": "2025-06-05",
    "recency_bucket": "3_9m",
    "is_recent_3m": false
  },
  {
    "lat": 21.2352796,
    "lng": 81.6245748,
    "type": "pickpocketing",
    "severity": 2,
    "label": "welcome,cloth shop",
    "source": "osm_overpass",
    "osm_id": 4992905188,
    "months_ago": 9.15,
    "timestamp": "2025-02-21",
    "recency_bucket": "9m_plus",
    "is_recent_3m": false
  },
  {
    "lat": 21.2353446,
    "lng": 81.6244165,
    "type": "pickpocketing",
    "severity": 2,
    "label": "Aaditya mobIl store",
    "source": "osm_overpass",
    "osm_id": 4992914646,
    "months_ago": 2.16,
    "timestamp": "2025-09-19",
    "recency_bucket": "0_3m",
    "is_recent_3m": true
  },
  {
    "lat": 21.2326191,
    "lng": 81.6284727,
    "type": "pickpocketing",
    "severity": 2,
    "label": "sitla bajar",
    "source": "osm_overpass",
    "osm_id": 4992925608,
    "months_ago": 8.3,
    "timestamp": "2025-03-19",
    "recency_bucket": "3_9m",
    "is_recent_3m": false
  },
  {
    "lat": 21.2338544,
    "lng": 81.6248754,
    "type": "pickpocketing",
    "severity": 2,
    "label": "Turihatri",
    "source": "osm_overpass",
    "osm_id": 4992925610,
    "months_ago": 8.62,
    "timestamp": "2025-03-09",
    "recency_bucket": "3_9m",
    "is_recent_3m": false
  },
  {
    "lat": 21.2349614,
    "lng": 81.6248091,
    "type": "pickpocketing",
    "severity": 2,
    "label": "Om Medical",
    "source": "osm_overpass",
    "osm_id": 4992926423,
    "months_ago": 7.27,
    "timestamp": "2025-04-19",
    "recency_bucket": "3_9m",
    "is_recent_3m": false
  },
  {
    "lat": 21.2351801,
    "lng": 81.6247416,
    "type": "pickpocketing",
    "severity": 2,
    "label": "Shashi ladirs tailor shop",
    "source": "osm_overpass",
    "osm_id": 4992971846,
    "months_ago": 5.21,
    "timestamp": "2025-06-20",
    "recency_bucket": "3_9m",
    "is_recent_3m": false
  },
  {
    "lat": 21.2355891,
    "lng": 81.62378,
    "type": "pickpocketing",
    "severity": 2,
    "label": "R.S. Cloth shop",
    "source": "osm_overpass",
    "osm_id": 4995095688,
    "months_ago": 14.83,
    "timestamp": "2024-09-04",
    "recency_bucket": "9m_plus",
    "is_recent_3m": false
  },
  {
    "lat": 21.2358838,
    "lng": 81.6231993,
    "type": "pickpocketing",
    "severity": 2,
    "label": "Laxmi Medical Store",
    "source": "osm_overpass",
    "osm_id": 4995138094,
    "months_ago": 6.88,
    "timestamp": "2025-04-30",
    "recency_bucket": "3_9m",
    "is_recent_3m": false
  },
  {
    "lat": 21.2356519,
    "lng": 81.6232254,
    "type": "pickpocketing",
    "severity": 2,
    "label": "Hello Girls Choth shop",
    "source": "osm_overpass",
    "osm_id": 4995152863,
    "months_ago": 1.55,
    "timestamp": "2025-10-07",
    "recency_bucket": "0_3m",
    "is_recent_3m": true
  },
  {
    "lat": 21.2679265,
    "lng": 81.6176655,
    "type": "pickpocketing",
    "severity": 2,
    "label": "vishwakarma tailor",
    "source": "osm_overpass",
    "osm_id": 4995334104,
    "months_ago": 1.08,
    "timestamp": "2025-10-22",
    "recency_bucket": "0_3m",
    "is_recent_3m": true
  },
  {
    "lat": 21.2677637,
    "lng": 81.6181503,
    "type": "pickpocketing",
    "severity": 2,
    "label": "medical store",
    "source": "osm_overpass",
    "osm_id": 4995334108,
    "months_ago": 11.62,
    "timestamp": "2024-12-09",
    "recency_bucket": "9m_plus",
    "is_recent_3m": false
  },
  {
    "lat": 21.2676963,
    "lng": 81.618161,
    "type": "pickpocketing",
    "severity": 2,
    "label": "lalita fancy store",
    "source": "osm_overpass",
    "osm_id": 4995334109,
    "months_ago": 4.63,
    "timestamp": "2025-07-07",
    "recency_bucket": "3_9m",
    "is_recent_3m": false
  },
  {
    "lat": 21.2676488,
    "lng": 81.618161,
    "type": "pickpocketing",
    "severity": 2,
    "label": "Sai Garments",
    "source": "osm_overpass",
    "osm_id": 4995334110,
    "months_ago": 5.72,
    "timestamp": "2025-06-04",
    "recency_bucket": "3_9m",
    "is_recent_3m": false
  },
  {
    "lat": 21.2674913,
    "lng": 81.6182496,
    "type": "pickpocketing",
    "severity": 2,
    "label": "Chandrakar Book Dipo",
    "source": "osm_overpass",
    "osm_id": 4995334113,
    "months_ago": 3.86,
    "timestamp": "2025-07-30",
    "recency_bucket": "3_9m",
    "is_recent_3m": false
  },
  {
    "lat": 21.2670464,
    "lng": 81.6182415,
    "type": "pickpocketing",
    "severity": 2,
    "label": "Bhagya laxmi Fashion store",
    "source": "osm_overpass",
    "osm_id": 4995334114,
    "months_ago": 6.41,
    "timestamp": "2025-05-15",
    "recency_bucket": "3_9m",
    "is_recent_3m": false
  },
  {
    "lat": 21.2669048,
    "lng": 81.6182429,
    "type": "pickpocketing",
    "severity": 2,
    "label": "Santose hair cutting",
    "source": "osm_overpass",
    "osm_id": 4995334115,
    "months_ago": 2.31,
    "timestamp": "2025-09-15",
    "recency_bucket": "0_3m",
    "is_recent_3m": true
  },
  {
    "lat": 21.2643328,
    "lng": 81.6180756,
    "type": "pickpocketing",
    "severity": 2,
    "label": "Bhurani Sari  Collection",
    "source": "osm_overpass",
    "osm_id": 4995335626,
    "months_ago": 0.35,
    "timestamp": "2025-11-12",
    "recency_bucket": "0_3m",
    "is_recent_3m": true
  },
  {
    "lat": 21.2642828,
    "lng": 81.6180595,
    "type": "pickpocketing",
    "severity": 2,
    "label": "Radhika Shringar",
    "source": "osm_overpass",
    "osm_id": 4995335627,
    "months_ago": 13.36,
    "timestamp": "2024-10-18",
    "recency_bucket": "9m_plus",
    "is_recent_3m": false
  },
  {
    "lat": 21.2468627,
    "lng": 81.6403859,
    "type": "harassment",
    "severity": 2,
    "label": "PG Daga Girls College, Raipur",
    "source": "osm_overpass",
    "osm_id": 5307773062,
    "months_ago": 3.53,
    "timestamp": "2025-08-09",
    "recency_bucket": "3_9m",
    "is_recent_3m": false
  },
  {
    "lat": 21.2244651,
    "lng": 81.6441812,
    "type": "dark_area",
    "severity": 2,
    "label": "Pujari park",
    "source": "osm_overpass",
    "osm_id": 5320242431,
    "months_ago": 13.69,
    "timestamp": "2024-10-08",
    "recency_bucket": "9m_plus",
    "is_recent_3m": false
  },
  {
    "lat": 21.2239649,
    "lng": 81.6315104,
    "type": "pickpocketing",
    "severity": 2,
    "label": "Bipro fancy",
    "source": "osm_overpass",
    "osm_id": 5321199743,
    "months_ago": 2.77,
    "timestamp": "2025-09-01",
    "recency_bucket": "0_3m",
    "is_recent_3m": true
  },
  {
    "lat": 21.233477,
    "lng": 81.6033167,
    "type": "pickpocketing",
    "severity": 2,
    "label": "vijay chowk",
    "source": "osm_overpass",
    "osm_id": 5321426555,
    "months_ago": 5.21,
    "timestamp": "2025-06-20",
    "recency_bucket": "3_9m",
    "is_recent_3m": false
  },
  {
    "lat": 21.2332498,
    "lng": 81.6036451,
    "type": "pickpocketing",
    "severity": 2,
    "label": "General store",
    "source": "osm_overpass",
    "osm_id": 5321426559,
    "months_ago": 0.89,
    "timestamp": "2025-10-27",
    "recency_bucket": "0_3m",
    "is_recent_3m": true
  },
  {
    "lat": 21.2349293,
    "lng": 81.6401107,
    "type": "harassment",
    "severity": 2,
    "label": "Gurukul College Ground",
    "source": "osm_overpass",
    "osm_id": 5544255793,
    "months_ago": 0.13,
    "timestamp": "2025-11-19",
    "recency_bucket": "0_3m",
    "is_recent_3m": true
  },
  {
    "lat": 21.2358281,
    "lng": 81.6268094,
    "type": "pickpocketing",
    "severity": 2,
    "label": "om sai provision store",
    "source": "osm_overpass",
    "osm_id": 5546788133,
    "months_ago": 6.59,
    "timestamp": "2025-05-09",
    "recency_bucket": "3_9m",
    "is_recent_3m": false
  },
  {
    "lat": 21.2416072,
    "lng": 81.677356,
    "type": "dark_area",
    "severity": 2,
    "label": "jeevan vihar park",
    "source": "osm_overpass",
    "osm_id": 5553847020,
    "months_ago": 5.23,
    "timestamp": "2025-06-19",
    "recency_bucket": "3_9m",
    "is_recent_3m": false
  },
  {
    "lat": 21.2357304,
    "lng": 81.6469417,
    "type": "harassment",
    "severity": 2,
    "label": "govt cg college",
    "source": "osm_overpass",
    "osm_id": 5555790663,
    "months_ago": 3.07,
    "timestamp": "2025-08-23",
    "recency_bucket": "3_9m",
    "is_recent_3m": false
  },
  {
    "lat": 21.2357342,
    "lng": 81.6469051,
    "type": "harassment",
    "severity": 2,
    "label": "govt j.yogananad",
    "source": "osm_overpass",
    "osm_id": 5555790664,
    "months_ago": 7.48,
    "timestamp": "2025-04-13",
    "recency_bucket": "3_9m",
    "is_recent_3m": false
  },
  {
    "lat": 21.3100423,
    "lng": 81.6367807,
    "type": "harassment",
    "severity": 3,
    "label": "bar",
    "source": "osm_overpass",
    "osm_id": 6008131669,
    "months_ago": 1.56,
    "timestamp": "2025-10-07",
    "recency_bucket": "0_3m",
    "is_recent_3m": true
  },
  {
    "lat": 21.2918331,
    "lng": 81.6273366,
    "type": "pickpocketing",
    "severity": 2,
    "label": "Best Prize",
    "source": "osm_overpass",
    "osm_id": 6008131986,
    "months_ago": 3.84,
    "timestamp": "2025-07-31",
    "recency_bucket": "3_9m",
    "is_recent_3m": false
  },
  {
    "lat": 21.2687898,
    "lng": 81.5898928,
    "type": "dark_area",
    "severity": 2,
    "label": "udaan park",
    "source": "osm_overpass",
    "osm_id": 6015202253,
    "months_ago": 7.28,
    "timestamp": "2025-04-19",
    "recency_bucket": "3_9m",
    "is_recent_3m": false
  },
  {
    "lat": 21.2622942,
    "lng": 81.658767,
    "type": "pickpocketing",
    "severity": 2,
    "label": "Ambika Traditional and fancy dresses",
    "source": "osm_overpass",
    "osm_id": 6024827530,
    "months_ago": 1.24,
    "timestamp": "2025-10-17",
    "recency_bucket": "0_3m",
    "is_recent_3m": true
  },
  {
    "lat": 21.2339898,
    "lng": 81.6096968,
    "type": "pickpocketing",
    "severity": 2,
    "label": "yes",
    "source": "osm_overpass",
    "osm_id": 6025154932,
    "months_ago": 2.92,
    "timestamp": "2025-08-27",
    "recency_bucket": "0_3m",
    "is_recent_3m": true
  },
  {
    "lat": 21.2548804,
    "lng": 81.6465965,
    "type": "pickpocketing",
    "severity": 2,
    "label": "Big Bazaar",
    "source": "osm_overpass",
    "osm_id": 6025244020,
    "months_ago": 13.91,
    "timestamp": "2024-10-02",
    "recency_bucket": "9m_plus",
    "is_recent_3m": false
  },
  {
    "lat": 21.2439999,
    "lng": 81.646051,
    "type": "dark_area",
    "severity": 2,
    "label": "Gandhi Udyan",
    "source": "osm_overpass",
    "osm_id": 6025244032,
    "months_ago": 10.94,
    "timestamp": "2024-12-30",
    "recency_bucket": "9m_plus",
    "is_recent_3m": false
  },
  {
    "lat": 21.2448382,
    "lng": 81.5942487,
    "type": "harassment",
    "severity": 2,
    "label": "statistics department",
    "source": "osm_overpass",
    "osm_id": 6068031835,
    "months_ago": 12.43,
    "timestamp": "2024-11-15",
    "recency_bucket": "9m_plus",
    "is_recent_3m": false
  },
  {
    "lat": 21.2328154,
    "lng": 81.6366541,
    "type": "harassment",
    "severity": 2,
    "label": "GOVT. DB GIRLS PG COLLEGE",
    "source": "osm_overpass",
    "osm_id": 6185331288,
    "months_ago": 5.64,
    "timestamp": "2025-06-07",
    "recency_bucket": "3_9m",
    "is_recent_3m": false
  },
  {
    "lat": 21.2349792,
    "lng": 81.6379679,
    "type": "dark_area",
    "severity": 2,
    "label": "MG PARK",
    "source": "osm_overpass",
    "osm_id": 6185331301,
    "months_ago": 8.98,
    "timestamp": "2025-02-26",
    "recency_bucket": "3_9m",
    "is_recent_3m": false
  },
  {
    "lat": 21.2488617,
    "lng": 81.6050303,
    "type": "dark_area",
    "severity": 3,
    "label": "Central Garden",
    "source": "osm_overpass",
    "osm_id": 6280289638,
    "months_ago": 0.21,
    "timestamp": "2025-11-17",
    "recency_bucket": "0_3m",
    "is_recent_3m": true
  },
  {
    "lat": 21.2477393,
    "lng": 81.6049309,
    "type": "harassment",
    "severity": 2,
    "label": "Cricket and Hockey Ground",
    "source": "osm_overpass",
    "osm_id": 6280344011,
    "months_ago": 8.14,
    "timestamp": "2025-03-24",
    "recency_bucket": "3_9m",
    "is_recent_3m": false
  },
  {
    "lat": 21.2490285,
    "lng": 81.6069578,
    "type": "harassment",
    "severity": 2,
    "label": "Football Ground",
    "source": "osm_overpass",
    "osm_id": 6280344012,
    "months_ago": 8.95,
    "timestamp": "2025-02-27",
    "recency_bucket": "3_9m",
    "is_recent_3m": false
  },
  {
    "lat": 21.244743,
    "lng": 81.6079507,
    "type": "pickpocketing",
    "severity": 2,
    "label": "Net City",
    "source": "osm_overpass",
    "osm_id": 6280395015,
    "months_ago": 5.95,
    "timestamp": "2025-05-29",
    "recency_bucket": "3_9m",
    "is_recent_3m": false
  },
  {
    "lat": 21.2440868,
    "lng": 81.6100868,
    "type": "pickpocketing",
    "severity": 2,
    "label": "Varun Honda",
    "source": "osm_overpass",
    "osm_id": 6280395016,
    "months_ago": 4.16,
    "timestamp": "2025-07-21",
    "recency_bucket": "3_9m",
    "is_recent_3m": false
  },
  {
    "lat": 21.2403046,
    "lng": 81.6249445,
    "type": "pickpocketing",
    "severity": 2,
    "label": "Woodland",
    "source": "osm_overpass",
    "osm_id": 6280395025,
    "months_ago": 8.84,
    "timestamp": "2025-03-03",
    "recency_bucket": "3_9m",
    "is_recent_3m": false
  },
  {
    "lat": 21.2502356,
    "lng": 81.6044221,
    "type": "pickpocketing",
    "severity": 2,
    "label": "Juice Shop",
    "source": "osm_overpass",
    "osm_id": 6283912397,
    "months_ago": 6.8,
    "timestamp": "2025-05-03",
    "recency_bucket": "3_9m",
    "is_recent_3m": false
  },
  {
    "lat": 21.2489922,
    "lng": 81.6059379,
    "type": "pickpocketing",
    "severity": 2,
    "label": "Amul Parlor",
    "source": "osm_overpass",
    "osm_id": 6283912398,
    "months_ago": 4.17,
    "timestamp": "2025-07-21",
    "recency_bucket": "3_9m",
    "is_recent_3m": false
  },
  {
    "lat": 21.2520123,
    "lng": 81.5987075,
    "type": "pickpocketing",
    "severity": 2,
    "label": "Stationary and Photocopy Shop",
    "source": "osm_overpass",
    "osm_id": 6285432523,
    "months_ago": 8.99,
    "timestamp": "2025-02-26",
    "recency_bucket": "3_9m",
    "is_recent_3m": false
  },
  {
    "lat": 21.2523174,
    "lng": 81.5992529,
    "type": "pickpocketing",
    "severity": 3,
    "label": "Bus Depot",
    "source": "osm_overpass",
    "osm_id": 6322579630,
    "months_ago": 7.91,
    "timestamp": "2025-03-31",
    "recency_bucket": "3_9m",
    "is_recent_3m": false
  },
  {
    "lat": 21.2486878,
    "lng": 81.6055134,
    "type": "dark_area",
    "severity": 2,
    "label": "Left Garden",
    "source": "osm_overpass",
    "osm_id": 6322631745,
    "months_ago": 2.06,
    "timestamp": "2025-09-22",
    "recency_bucket": "0_3m",
    "is_recent_3m": true
  },
  {
    "lat": 21.2751005,
    "lng": 81.6805252,
    "type": "pickpocketing",
    "severity": 2,
    "label": "DG Motor car repair & Garage",
    "source": "osm_overpass",
    "osm_id": 7736593756,
    "months_ago": 2.51,
    "timestamp": "2025-09-09",
    "recency_bucket": "0_3m",
    "is_recent_3m": true
  },
  {
    "lat": 21.2742787,
    "lng": 81.6689383,
    "type": "pickpocketing",
    "severity": 2,
    "label": "Durga Temple",
    "source": "osm_overpass",
    "osm_id": 7736593761,
    "months_ago": 3.65,
    "timestamp": "2025-08-05",
    "recency_bucket": "3_9m",
    "is_recent_3m": false
  },
  {
    "lat": 21.2761383,
    "lng": 81.683113,
    "type": "pickpocketing",
    "severity": 2,
    "label": "Science Centre Parking Area",
    "source": "osm_overpass",
    "osm_id": 7736593767,
    "months_ago": 4.5,
    "timestamp": "2025-07-11",
    "recency_bucket": "3_9m",
    "is_recent_3m": false
  },
  {
    "lat": 21.2760802,
    "lng": 81.6714495,
    "type": "pickpocketing",
    "severity": 2,
    "label": "Harish Kirana Store",
    "source": "osm_overpass",
    "osm_id": 7736593769,
    "months_ago": 7.24,
    "timestamp": "2025-04-20",
    "recency_bucket": "3_9m",
    "is_recent_3m": false
  },
  {
    "lat": 21.2688649,
    "lng": 81.6732033,
    "type": "pickpocketing",
    "severity": 2,
    "label": "Reliance Smart",
    "source": "osm_overpass",
    "osm_id": 7736593779,
    "months_ago": 5.68,
    "timestamp": "2025-06-06",
    "recency_bucket": "3_9m",
    "is_recent_3m": false
  },
  {
    "lat": 21.2757711,
    "lng": 81.680646,
    "type": "pickpocketing",
    "severity": 2,
    "label": "Vigyan Kendra Parking",
    "source": "osm_overpass",
    "osm_id": 7736593780,
    "months_ago": 4.39,
    "timestamp": "2025-07-14",
    "recency_bucket": "3_9m",
    "is_recent_3m": false
  },
  {
    "lat": 21.2688546,
    "lng": 81.6740013,
    "type": "pickpocketing",
    "severity": 2,
    "label": "English Wine Shop",
    "source": "osm_overpass",
    "osm_id": 7736593781,
    "months_ago": 3.38,
    "timestamp": "2025-08-13",
    "recency_bucket": "3_9m",
    "is_recent_3m": false
  },
  {
    "lat": 21.2771,
    "lng": 81.6699365,
    "type": "pickpocketing",
    "severity": 2,
    "label": "Verma Super Bazaar",
    "source": "osm_overpass",
    "osm_id": 7736593783,
    "months_ago": 2.8,
    "timestamp": "2025-08-31",
    "recency_bucket": "0_3m",
    "is_recent_3m": true
  },
  {
    "lat": 21.2760852,
    "lng": 81.6713171,
    "type": "pickpocketing",
    "severity": 2,
    "label": "Verma Kiraya Bhandar",
    "source": "osm_overpass",
    "osm_id": 7736593784,
    "months_ago": 5.66,
    "timestamp": "2025-06-06",
    "recency_bucket": "3_9m",
    "is_recent_3m": false
  },
  {
    "lat": 21.277897,
    "lng": 81.670983,
    "type": "pickpocketing",
    "severity": 2,
    "label": "Krishna Provision and General Store",
    "source": "osm_overpass",
    "osm_id": 7736595903,
    "months_ago": 13.65,
    "timestamp": "2024-10-10",
    "recency_bucket": "9m_plus",
    "is_recent_3m": false
  },
  {
    "lat": 21.2661315,
    "lng": 81.6624217,
    "type": "pickpocketing",
    "severity": 2,
    "label": "Government Higher Secondary School",
    "source": "osm_overpass",
    "osm_id": 7736595907,
    "months_ago": 4.82,
    "timestamp": "2025-07-01",
    "recency_bucket": "3_9m",
    "is_recent_3m": false
  },
  {
    "lat": 21.2510233,
    "lng": 81.6286553,
    "type": "pickpocketing",
    "severity": 2,
    "label": "Vishal Industrial Corporation",
    "source": "osm_overpass",
    "osm_id": 8499120296,
    "months_ago": 11.41,
    "timestamp": "2024-12-16",
    "recency_bucket": "9m_plus",
    "is_recent_3m": false
  },
  {
    "lat": 21.3140711,
    "lng": 81.6179915,
    "type": "pickpocketing",
    "severity": 2,
    "label": "JMD  Trading",
    "source": "osm_overpass",
    "osm_id": 9266768624,
    "months_ago": 7.67,
    "timestamp": "2025-04-07",
    "recency_bucket": "3_9m",
    "is_recent_3m": false
  },
  {
    "lat": 21.2409675,
    "lng": 81.6356064,
    "type": "pickpocketing",
    "severity": 2,
    "label": "Rose Cosmetics",
    "source": "osm_overpass",
    "osm_id": 9266888290,
    "months_ago": 6.86,
    "timestamp": "2025-05-01",
    "recency_bucket": "3_9m",
    "is_recent_3m": false
  },
  {
    "lat": 21.2321429,
    "lng": 81.6475721,
    "type": "harassment",
    "severity": 2,
    "label": "शासकीय महिला पालिटेक्निक महाविद्यालय रायपुर",
    "source": "osm_overpass",
    "osm_id": 9726231917,
    "months_ago": 9.0,
    "timestamp": "2025-02-26",
    "recency_bucket": "3_9m",
    "is_recent_3m": false
  },
  {
    "lat": 21.2218868,
    "lng": 81.6608653,
    "type": "harassment",
    "severity": 2,
    "label": "सी जी कालेज ऑफ नर्सिंग",
    "source": "osm_overpass",
    "osm_id": 9726292317,
    "months_ago": 11.07,
    "timestamp": "2024-12-26",
    "recency_bucket": "9m_plus",
    "is_recent_3m": false
  },
  {
    "lat": 21.2194297,
    "lng": 81.6622121,
    "type": "harassment",
    "severity": 2,
    "label": "महाराना प्रताप कालेज ऑफ नसिंग",
    "source": "osm_overpass",
    "osm_id": 9726304817,
    "months_ago": 6.92,
    "timestamp": "2025-04-29",
    "recency_bucket": "3_9m",
    "is_recent_3m": false
  },
  {
    "lat": 21.2218482,
    "lng": 81.661691,
    "type": "pickpocketing",
    "severity": 2,
    "label": "किशोर शापिंग मॉल सुपर बाजार",
    "source": "osm_overpass",
    "osm_id": 9726342517,
    "months_ago": 8.56,
    "timestamp": "2025-03-11",
    "recency_bucket": "3_9m",
    "is_recent_3m": false
  },
  {
    "lat": 21.1775812,
    "lng": 81.6370232,
    "type": "harassment",
    "severity": 2,
    "label": "श्री नारायणा नर्सिंग इन्स्टीट्यूट , रायपुर",
    "source": "osm_overpass",
    "osm_id": 9867587017,
    "months_ago": 2.46,
    "timestamp": "2025-09-10",
    "recency_bucket": "0_3m",
    "is_recent_3m": true
  },
  {
    "lat": 21.2172166,
    "lng": 81.5928579,
    "type": "harassment",
    "severity": 2,
    "label": "रामकृष्णा इंस्टिट्यूट ऑफ़ मेडिकल साइस",
    "source": "osm_overpass",
    "osm_id": 9992154518,
    "months_ago": 1.35,
    "timestamp": "2025-10-13",
    "recency_bucket": "0_3m",
    "is_recent_3m": true
  },
  {
    "lat": 21.1580778,
    "lng": 81.627426,
    "type": "harassment",
    "severity": 2,
    "label": "आदर्श नर्सिंग इंस्टीट्यूट, रायपुर & आदर्श महाविद्यालय, रायपुर",
    "source": "osm_overpass",
    "osm_id": 9992380517,
    "months_ago": 1.07,
    "timestamp": "2025-10-22",
    "recency_bucket": "0_3m",
    "is_recent_3m": true
  },
  {
    "lat": 21.310202,
    "lng": 81.773038,
    "type": "harassment",
    "severity": 2,
    "label": "स्पेक्ट्रम कॉलेज़ ऑफ एजुकेशन, नरदहा, रायपुर",
    "source": "osm_overpass",
    "osm_id": 10001441517,
    "months_ago": 1.58,
    "timestamp": "2025-10-06",
    "recency_bucket": "0_3m",
    "is_recent_3m": true
  },
  {
    "lat": 21.2443653,
    "lng": 81.5868728,
    "type": "dark_area",
    "severity": 2,
    "label": "dark_area",
    "source": "osm_overpass",
    "osm_id": 10175247737,
    "months_ago": 10.2,
    "timestamp": "2025-01-21",
    "recency_bucket": "9m_plus",
    "is_recent_3m": false
  },
  {
    "lat": 21.2444782,
    "lng": 81.5874982,
    "type": "dark_area",
    "severity": 2,
    "label": "Tennis Court 1",
    "source": "osm_overpass",
    "osm_id": 10175247738,
    "months_ago": 8.51,
    "timestamp": "2025-03-13",
    "recency_bucket": "3_9m",
    "is_recent_3m": false
  },
  {
    "lat": 21.2446118,
    "lng": 81.587644,
    "type": "dark_area",
    "severity": 2,
    "label": "Tennis Court 2",
    "source": "osm_overpass",
    "osm_id": 10175247739,
    "months_ago": 14.12,
    "timestamp": "2024-09-25",
    "recency_bucket": "9m_plus",
    "is_recent_3m": false
  },
  {
    "lat": 21.2362053,
    "lng": 81.5980859,
    "type": "pickpocketing",
    "severity": 2,
    "label": "General Store",
    "source": "osm_overpass",
    "osm_id": 10933807512,
    "months_ago": 0.23,
    "timestamp": "2025-11-16",
    "recency_bucket": "0_3m",
    "is_recent_3m": true
  },
  {
    "lat": 21.2370985,
    "lng": 81.5977772,
    "type": "pickpocketing",
    "severity": 2,
    "label": "Kashish Beauty Parlor",
    "source": "osm_overpass",
    "osm_id": 10939707185,
    "months_ago": 1.88,
    "timestamp": "2025-09-27",
    "recency_bucket": "0_3m",
    "is_recent_3m": true
  },
  {
    "lat": 21.2372804,
    "lng": 81.5970298,
    "type": "pickpocketing",
    "severity": 2,
    "label": "SHREE BALAJI DAIRY",
    "source": "osm_overpass",
    "osm_id": 10939736222,
    "months_ago": 0.86,
    "timestamp": "2025-10-28",
    "recency_bucket": "0_3m",
    "is_recent_3m": true
  },
  {
    "lat": 21.2369071,
    "lng": 81.5968116,
    "type": "pickpocketing",
    "severity": 2,
    "label": "Kosa Saree Emporium",
    "source": "osm_overpass",
    "osm_id": 10939757017,
    "months_ago": 6.33,
    "timestamp": "2025-05-17",
    "recency_bucket": "3_9m",
    "is_recent_3m": false
  },
  {
    "lat": 21.2369734,
    "lng": 81.5964738,
    "type": "pickpocketing",
    "severity": 2,
    "label": "Perfect 👌 Care Unisex Salon and Academy",
    "source": "osm_overpass",
    "osm_id": 10939765852,
    "months_ago": 12.99,
    "timestamp": "2024-10-29",
    "recency_bucket": "9m_plus",
    "is_recent_3m": false
  },
  {
    "lat": 21.2395716,
    "lng": 81.6283927,
    "type": "pickpocketing",
    "severity": 2,
    "label": "Hero Sprint Store",
    "source": "osm_overpass",
    "osm_id": 11539315781,
    "months_ago": 7.32,
    "timestamp": "2025-04-17",
    "recency_bucket": "3_9m",
    "is_recent_3m": false
  },
  {
    "lat": 21.2378531,
    "lng": 81.5982373,
    "type": "pickpocketing",
    "severity": 2,
    "label": "Jafree hardware",
    "source": "osm_overpass",
    "osm_id": 11629664102,
    "months_ago": 4.38,
    "timestamp": "2025-07-14",
    "recency_bucket": "3_9m",
    "is_recent_3m": false
  },
  {
    "lat": 21.2378656,
    "lng": 81.598519,
    "type": "pickpocketing",
    "severity": 2,
    "label": "Rohit Mobile and stationery",
    "source": "osm_overpass",
    "osm_id": 11629664111,
    "months_ago": 7.63,
    "timestamp": "2025-04-08",
    "recency_bucket": "3_9m",
    "is_recent_3m": false
  },
  {
    "lat": 21.2376581,
    "lng": 81.5978042,
    "type": "pickpocketing",
    "severity": 2,
    "label": "Chamunda Store",
    "source": "osm_overpass",
    "osm_id": 11629664120,
    "months_ago": 0.78,
    "timestamp": "2025-10-31",
    "recency_bucket": "0_3m",
    "is_recent_3m": true
  },
  {
    "lat": 21.2360201,
    "lng": 81.6005431,
    "type": "pickpocketing",
    "severity": 2,
    "label": "dairy",
    "source": "osm_overpass",
    "osm_id": 11641126897,
    "months_ago": 2.12,
    "timestamp": "2025-09-20",
    "recency_bucket": "0_3m",
    "is_recent_3m": true
  },
  {
    "lat": 21.244512,
    "lng": 81.6380575,
    "type": "pickpocketing",
    "severity": 2,
    "label": "Jyoti Stationery Mart",
    "source": "osm_overpass",
    "osm_id": 12008981143,
    "months_ago": 14.79,
    "timestamp": "2024-09-05",
    "recency_bucket": "9m_plus",
    "is_recent_3m": false
  },
  {
    "lat": 21.2719055,
    "lng": 81.6354957,
    "type": "pickpocketing",
    "severity": 2,
    "label": "RK Cyber Cafe and Stationery",
    "source": "osm_overpass",
    "osm_id": 12595620698,
    "months_ago": 0.14,
    "timestamp": "2025-11-19",
    "recency_bucket": "0_3m",
    "is_recent_3m": true
  },
  {
    "lat": 21.3119693,
    "lng": 81.6870792,
    "type": "pickpocketing",
    "severity": 2,
    "label": "Bansal Agro PVT. LTD.",
    "source": "osm_overpass",
    "osm_id": 12595627385,
    "months_ago": 13.4,
    "timestamp": "2024-10-17",
    "recency_bucket": "9m_plus",
    "is_recent_3m": false
  },
  {
    "lat": 21.2721281,
    "lng": 81.6320174,
    "type": "pickpocketing",
    "severity": 2,
    "label": "Kanhaiya Mobile",
    "source": "osm_overpass",
    "osm_id": 12595671841,
    "months_ago": 12.58,
    "timestamp": "2024-11-11",
    "recency_bucket": "9m_plus",
    "is_recent_3m": false
  },
  {
    "lat": 21.2719702,
    "lng": 81.6300132,
    "type": "pickpocketing",
    "severity": 2,
    "label": "Beauty Bar Hair Salon",
    "source": "osm_overpass",
    "osm_id": 12595672405,
    "months_ago": 12.56,
    "timestamp": "2024-11-11",
    "recency_bucket": "9m_plus",
    "is_recent_3m": false
  },
  {
    "lat": 21.2724741,
    "lng": 81.6299115,
    "type": "pickpocketing",
    "severity": 2,
    "label": "Manju Patra Bhandar",
    "source": "osm_overpass",
    "osm_id": 12595673303,
    "months_ago": 14.45,
    "timestamp": "2024-09-15",
    "recency_bucket": "9m_plus",
    "is_recent_3m": false
  },
  {
    "lat": 21.2739728,
    "lng": 81.632059,
    "type": "pickpocketing",
    "severity": 2,
    "label": "Shravan Beauty Parlor",
    "source": "osm_overpass",
    "osm_id": 12595686129,
    "months_ago": 14.35,
    "timestamp": "2024-09-18",
    "recency_bucket": "9m_plus",
    "is_recent_3m": false
  },
  {
    "lat": 21.2721468,
    "lng": 81.6328262,
    "type": "pickpocketing",
    "severity": 2,
    "label": "New Indore Sweets",
    "source": "osm_overpass",
    "osm_id": 12595715227,
    "months_ago": 2.22,
    "timestamp": "2025-09-17",
    "recency_bucket": "0_3m",
    "is_recent_3m": true
  },
  {
    "lat": 21.2721353,
    "lng": 81.6329602,
    "type": "pickpocketing",
    "severity": 2,
    "label": "Apollo Pharmacy",
    "source": "osm_overpass",
    "osm_id": 12595715414,
    "months_ago": 4.81,
    "timestamp": "2025-07-02",
    "recency_bucket": "3_9m",
    "is_recent_3m": false
  },
  {
    "lat": 21.237338,
    "lng": 81.656672,
    "type": "dark_area",
    "severity": 2,
    "label": "National Flag",
    "source": "osm_overpass",
    "osm_id": 12595800200,
    "months_ago": 8.32,
    "timestamp": "2025-03-18",
    "recency_bucket": "3_9m",
    "is_recent_3m": false
  },
  {
    "lat": 21.2634896,
    "lng": 81.6373944,
    "type": "pickpocketing",
    "severity": 2,
    "label": "Lalgangas Midas",
    "source": "osm_overpass",
    "osm_id": 12595803509,
    "months_ago": 0.85,
    "timestamp": "2025-10-28",
    "recency_bucket": "0_3m",
    "is_recent_3m": true
  },
  {
    "lat": 21.2229556,
    "lng": 81.6459793,
    "type": "pickpocketing",
    "severity": 2,
    "label": "Vishal Mega Mart",
    "source": "osm_overpass",
    "osm_id": 12595843993,
    "months_ago": 0.02,
    "timestamp": "2025-11-22",
    "recency_bucket": "0_3m",
    "is_recent_3m": true
  },
  {
    "lat": 21.2419335,
    "lng": 81.6547199,
    "type": "dark_area",
    "severity": 2,
    "label": "Nehru Udhyan",
    "source": "osm_overpass",
    "osm_id": 12595952397,
    "months_ago": 8.47,
    "timestamp": "2025-03-14",
    "recency_bucket": "3_9m",
    "is_recent_3m": false
  },
  {
    "lat": 21.2649675,
    "lng": 81.6542112,
    "type": "pickpocketing",
    "severity": 2,
    "label": "veepee impex - Mandi Gate",
    "source": "osm_overpass",
    "osm_id": 13042892187,
    "months_ago": 6.6,
    "timestamp": "2025-05-09",
    "recency_bucket": "3_9m",
    "is_recent_3m": false
  }
]